,Unnamed: 0,Address,Sale Date,Sale Price,salePrice_numeric,price_SF,Square Ft ,Year  Built ,full_address,Address_URL,url,lat,long
0,7882,790 ABBOTTS MILL CT,3/3/22,"$351,000.00 ",351000,225,1560,1999,"790 ABBOTTS MILL CT Fulton County, GA","790%20ABBOTTS%20MILL%20CT%20Fulton%20County,%20GA","https://www.google.com/maps/search/790%20ABBOTTS%20MILL%20CT%20Fulton%20County,%20GA",34.0421715,-84.177704
1,7883,2255 PEACHTREE RD NE # 524,3/3/22,"$345,000.00 ",345000,275.5591054,1252,2004,"2255 PEACHTREE RD NE # 524 Fulton County, GA","2255%20PEACHTREE%20RD%20NE%20#%20524%20Fulton%20County,%20GA","https://www.google.com/maps/search/2255%20PEACHTREE%20RD%20NE%20#%20524%20Fulton%20County,%20GA",33.8395469,-84.3796722
2,7884,2656 DOBBS CIR NW,3/3/22,"$1,670,000.00 ",1670000,366.7911267,4553,1999,"2656 DOBBS CIR NW Fulton County, GA","2656%20DOBBS%20CIR%20NW%20Fulton%20County,%20GA","https://www.google.com/maps/search/2656%20DOBBS%20CIR%20NW%20Fulton%20County,%20GA",33.8273364,-84.4309087
3,7885,2963 STONE RD,3/3/22,"$227,000.00 ",227000,133.4509112,1701,1956,"2963 STONE RD Fulton County, GA","2963%20STONE%20RD%20Fulton%20County,%20GA","https://www.google.com/maps/search/2963%20STONE%20RD%20Fulton%20County,%20GA",33.6666345,-84.4855275
4,7886,2841 LAUREL RIDGE CIR,3/3/22,"$174,000.00 ",174000,140.776699,1236,2009,"2841 LAUREL RIDGE CIR Fulton County, GA","2841%20LAUREL%20RIDGE%20CIR%20Fulton%20County,%20GA","https://www.google.com/maps/search/2841%20LAUREL%20RIDGE%20CIR%20Fulton%20County,%20GA",33.6498217,-84.4933963
5,7887,848 BOLTON RD NW,3/3/22,"$150,000.00 ",150000,150,1000,1960,"848 BOLTON RD NW Fulton County, GA","848%20BOLTON%20RD%20NW%20Fulton%20County,%20GA","https://www.google.com/maps/search/848%20BOLTON%20RD%20NW%20Fulton%20County,%20GA",33.7783978,-84.5006084
6,7888,3435 KINGSBORO RD NE 802,3/3/22,"$360,000.00 ",360000,214.2857143,1680,1991,"3435 KINGSBORO RD NE 802 Fulton County, GA","3435%20KINGSBORO%20RD%20NE%20802%20Fulton%20County,%20GA","https://www.google.com/maps/search/3435%20KINGSBORO%20RD%20NE%20802%20Fulton%20County,%20GA",33.8493558,-84.3585759
3464,11346,1 PLANTATION DR NE # B,5/13/22,"$347,000.00 ",347000,212.2324159,1635,1983,"1 PLANTATION DR NE # B Fulton County, GA","1%20PLANTATION%20DR%20NE%20#%20B%20Fulton%20County,%20GA","https://www.google.com/maps/search/1%20PLANTATION%20DR%20NE%20#%20B%20Fulton%20County,%20GA",33.83747117,-84.35786155
8,7890,4565 KENT RD,3/3/22,"$289,900.00 ",289900,198.2900137,1462,2001,"4565 KENT RD Fulton County, GA","4565%20KENT%20RD%20Fulton%20County,%20GA","https://www.google.com/maps/search/4565%20KENT%20RD%20Fulton%20County,%20GA",33.6311885,-84.4813212
9,7891,1040 WOODLAND AVE SE,3/3/22,"$527,500.00 ",527500,438.8519135,1202,1925,"1040 WOODLAND AVE SE Fulton County, GA","1040%20WOODLAND%20AVE%20SE%20Fulton%20County,%20GA","https://www.google.com/maps/search/1040%20WOODLAND%20AVE%20SE%20Fulton%20County,%20GA",33.7259616,-84.3523534
10,7892,333 PATTERSON WAY,3/3/22,"$1,290,000.00 ",1290000,559.1677503,2307,2016,"333 PATTERSON WAY Fulton County, GA","333%20PATTERSON%20WAY%20Fulton%20County,%20GA","https://www.google.com/maps/search/333%20PATTERSON%20WAY%20Fulton%20County,%20GA",33.7626557,-84.3607565
11,7893,442 BURGUNDY TER,3/3/22,"$434,990.00 ",434990,189.9519651,2290,2021,"442 BURGUNDY TER Fulton County, GA","442%20BURGUNDY%20TER%20Fulton%20County,%20GA","https://www.google.com/maps/search/442%20BURGUNDY%20TER%20Fulton%20County,%20GA",33.6805847,-84.3697508
12,7894,480 JOHN WESLEY DOBBS AVE LOT 602,3/3/22,"$420,000.00 ",420000,346.8208092,1211,2007,"480 JOHN WESLEY DOBBS AVE LOT 602 Fulton County, GA","480%20JOHN%20WESLEY%20DOBBS%20AVE%20LOT%20602%20Fulton%20County,%20GA","https://www.google.com/maps/search/480%20JOHN%20WESLEY%20DOBBS%20AVE%20LOT%20602%20Fulton%20County,%20GA",33.7597896,-84.3713699
13,7895,821 DURANT PL NE # 4,3/3/22,"$205,000.00 ",205000,251.2254902,816,1963,"821 DURANT PL NE # 4 Fulton County, GA","821%20DURANT%20PL%20NE%20#%204%20Fulton%20County,%20GA","https://www.google.com/maps/search/821%20DURANT%20PL%20NE%20#%204%20Fulton%20County,%20GA",33.7770033,-84.3748864
14,7896,33 PONCE DE LEON AVE NE 310,3/3/22,"$393,000.00 ",393000,301.1494253,1305,1961,"33 PONCE DE LEON AVE NE 310 Fulton County, GA","33%20PONCE%20DE%20LEON%20AVE%20NE%20310%20Fulton%20County,%20GA","https://www.google.com/maps/search/33%20PONCE%20DE%20LEON%20AVE%20NE%20310%20Fulton%20County,%20GA",33.7719666,-84.3863837
15,7897,126 RENAISSANCE PKWY LOT 201,3/3/22,"$571,000.00 ",571000,540.719697,1056,2021,"126 RENAISSANCE PKWY LOT 201 Fulton County, GA","126%20RENAISSANCE%20PKWY%20LOT%20201%20Fulton%20County,%20GA","https://www.google.com/maps/search/126%20RENAISSANCE%20PKWY%20LOT%20201%20Fulton%20County,%20GA",33.7689386,-84.3830941
16,7898,100 BROWN AVE SE,3/3/22,"$306,000.00 ",306000,313.8461538,975,1935,"100 BROWN AVE SE Fulton County, GA","100%20BROWN%20AVE%20SE%20Fulton%20County,%20GA","https://www.google.com/maps/search/100%20BROWN%20AVE%20SE%20Fulton%20County,%20GA",33.7138865,-84.3849847
17,7899,1256 OAKLAND TER SW,3/3/22,"$550,000.00 ",550000,259.4339623,2120,1930,"1256 OAKLAND TER SW Fulton County, GA","1256%20OAKLAND%20TER%20SW%20Fulton%20County,%20GA","https://www.google.com/maps/search/1256%20OAKLAND%20TER%20SW%20Fulton%20County,%20GA",33.7208664,-84.4291241
18,7900,1900 WEST FORREST AVE,3/3/22,"$275,000.00 ",275000,299.5642702,918,1943,"1900 WEST FORREST AVE Fulton County, GA","1900%20WEST%20FORREST%20AVE%20Fulton%20County,%20GA","https://www.google.com/maps/search/1900%20WEST%20FORREST%20AVE%20Fulton%20County,%20GA",33.686048,-84.4506995
19,7901,2015 CASCADE RD SW,3/3/22,"$416,000.00 ",416000,298.4218077,1394,1950,"2015 CASCADE RD SW Fulton County, GA","2015%20CASCADE%20RD%20SW%20Fulton%20County,%20GA","https://www.google.com/maps/search/2015%20CASCADE%20RD%20SW%20Fulton%20County,%20GA",33.7215836,-84.4542878
20,7902,12535 CELESTINE WAY,3/3/22,"$1,496,491.00 ",1496491,306.6579918,4880,2021,"12535 CELESTINE WAY Fulton County, GA","12535%20CELESTINE%20WAY%20Fulton%20County,%20GA","https://www.google.com/maps/search/12535%20CELESTINE%20WAY%20Fulton%20County,%20GA",34.0983238,-84.3843917
21,7903,3240 WOOD BRANCH DR,3/3/22,"$760,000.00 ",760000,230.3728403,3299,2001,"3240 WOOD BRANCH DR Fulton County, GA","3240%20WOOD%20BRANCH%20DR%20Fulton%20County,%20GA","https://www.google.com/maps/search/3240%20WOOD%20BRANCH%20DR%20Fulton%20County,%20GA",34.1239984,-84.2645465
22,7904,8900 BUCKHORN DR NE,3/3/22,"$727,500.00 ",727500,271.2527964,2682,1973,"8900 BUCKHORN DR NE Fulton County, GA","8900%20BUCKHORN%20DR%20NE%20Fulton%20County,%20GA","https://www.google.com/maps/search/8900%20BUCKHORN%20DR%20NE%20Fulton%20County,%20GA",33.9983649,-84.363344
23,7905,3775 SHENFIELD DR LOT 223,3/3/22,"$280,000.00 ",280000,162.037037,1728,2008,"3775 SHENFIELD DR LOT 223 Fulton County, GA","3775%20SHENFIELD%20DR%20LOT%20223%20Fulton%20County,%20GA","https://www.google.com/maps/search/3775%20SHENFIELD%20DR%20LOT%20223%20Fulton%20County,%20GA",33.5818592,-84.5249673
24,7906,6066 KAYRON DR NE,3/3/22,"$560,000.00 ",560000,376.0913365,1489,1958,"6066 KAYRON DR NE Fulton County, GA","6066%20KAYRON%20DR%20NE%20Fulton%20County,%20GA","https://www.google.com/maps/search/6066%20KAYRON%20DR%20NE%20Fulton%20County,%20GA",33.9205731,-84.3719555
25,7907,683 COLIGNY CT,3/3/22,"$382,601.00 ",382601,224.7949471,1702,2004,"683 COLIGNY CT Fulton County, GA","683%20COLIGNY%20CT%20Fulton%20County,%20GA","https://www.google.com/maps/search/683%20COLIGNY%20CT%20Fulton%20County,%20GA",33.9706041,-84.3656029
26,7908,250 PHARR RD NE # 1404,3/3/22,"$269,000.00 ",269000,340.5063291,790,2004,"250 PHARR RD NE # 1404 Fulton County, GA","250%20PHARR%20RD%20NE%20#%201404%20Fulton%20County,%20GA","https://www.google.com/maps/search/250%20PHARR%20RD%20NE%20#%201404%20Fulton%20County,%20GA",33.8379648,-84.3781073
27,7909,230 BOLLING RD NE,3/3/22,"$1,095,000.00 ",1095000,363.5458167,3012,1928,"230 BOLLING RD NE Fulton County, GA","230%20BOLLING%20RD%20NE%20Fulton%20County,%20GA","https://www.google.com/maps/search/230%20BOLLING%20RD%20NE%20Fulton%20County,%20GA",33.8298212,-84.3797087
28,7910,2479 PEACHTREE RD 304,3/3/22,"$159,000.00 ",159000,189.9641577,837,1967,"2479 PEACHTREE RD 304 Fulton County, GA","2479%20PEACHTREE%20RD%20304%20Fulton%20County,%20GA","https://www.google.com/maps/search/2479%20PEACHTREE%20RD%20304%20Fulton%20County,%20GA",33.8225017,-84.3865221
7010,14892,100 BISCAYNE DR # #D6,9/26/22,"$176,000.00 ",176000,237.8378378,740,1964,"100 BISCAYNE DR # #D6 Fulton County, GA","100%20BISCAYNE%20DR%20#%20#D6%20Fulton%20County,%20GA","https://www.google.com/maps/search/100%20BISCAYNE%20DR%20#%20#D6%20Fulton%20County,%20GA",33.81540718,-84.39468138
30,7912,50 BISCAYNE DR # 3110,3/3/22,"$380,000.00 ",380000,247.5570033,1535,2002,"50 BISCAYNE DR # 3110 Fulton County, GA","50%20BISCAYNE%20DR%20#%203110%20Fulton%20County,%20GA","https://www.google.com/maps/search/50%20BISCAYNE%20DR%20#%203110%20Fulton%20County,%20GA",33.8151422,-84.3937932
31,7913,400 SEVENTEENTH ST NW # 1141,3/3/22,"$228,000.00 ",228000,304,750,2004,"400 SEVENTEENTH ST NW # 1141 Fulton County, GA","400%20SEVENTEENTH%20ST%20NW%20#%201141%20Fulton%20County,%20GA","https://www.google.com/maps/search/400%20SEVENTEENTH%20ST%20NW%20#%201141%20Fulton%20County,%20GA",33.7891045,-84.4014254
32,7914,3306 PINE HEIGHTS DR,3/3/22,"$234,900.00 ",234900,156.1835106,1504,1986,"3306 PINE HEIGHTS DR Fulton County, GA","3306%20PINE%20HEIGHTS%20DR%20Fulton%20County,%20GA","https://www.google.com/maps/search/3306%20PINE%20HEIGHTS%20DR%20Fulton%20County,%20GA",33.829183,-84.357407
33,7915,709 COOLEDGE AVE NE,3/3/22,"$1,050,000.00 ",1050000,461.9445667,2273,1925,"709 COOLEDGE AVE NE Fulton County, GA","709%20COOLEDGE%20AVE%20NE%20Fulton%20County,%20GA","https://www.google.com/maps/search/709%20COOLEDGE%20AVE%20NE%20Fulton%20County,%20GA",33.7823955,-84.3641355
34,7916,1170 STERLING BROOKE DR,3/3/22,"$622,000.00 ",622000,173.986014,3575,2011,"1170 STERLING BROOKE DR Fulton County, GA","1170%20STERLING%20BROOKE%20DR%20Fulton%20County,%20GA","https://www.google.com/maps/search/1170%20STERLING%20BROOKE%20DR%20Fulton%20County,%20GA",34.0503292,-84.2673646
35,7917,5887 OLD BILL COOK RD,3/3/22,"$230,000.00 ",230000,155.5104801,1479,1967,"5887 OLD BILL COOK RD Fulton County, GA","5887%20OLD%20BILL%20COOK%20RD%20Fulton%20County,%20GA","https://www.google.com/maps/search/5887%20OLD%20BILL%20COOK%20RD%20Fulton%20County,%20GA",33.5956163,-84.4930706
36,7918,855 GREENWOOD AVE NE # J,3/3/22,"$330,000.00 ",330000,311.0273327,1061,1984,"855 GREENWOOD AVE NE # J Fulton County, GA","855%20GREENWOOD%20AVE%20NE%20#%20J%20Fulton%20County,%20GA","https://www.google.com/maps/search/855%20GREENWOOD%20AVE%20NE%20#%20J%20Fulton%20County,%20GA",33.7764409,-84.3596886
37,7919,566 ROCKWELL ST SW,3/3/22,"$220,000.00 ",220000,169.7530864,1296,1960,"566 ROCKWELL ST SW Fulton County, GA","566%20ROCKWELL%20ST%20SW%20Fulton%20County,%20GA","https://www.google.com/maps/search/566%20ROCKWELL%20ST%20SW%20Fulton%20County,%20GA",33.731697,-84.4062275
38,7920,2462 LAUREL CIR,3/3/22,"$218,500.00 ",218500,148.9434219,1467,2003,"2462 LAUREL CIR Fulton County, GA","2462%20LAUREL%20CIR%20Fulton%20County,%20GA","https://www.google.com/maps/search/2462%20LAUREL%20CIR%20Fulton%20County,%20GA",33.757787,-84.4728724
39,7921,16500 BLACK OAK RD,3/3/22,"$130,000.00 ",130000,160.2959309,811,1940,"16500 BLACK OAK RD Fulton County, GA","16500%20BLACK%20OAK%20RD%20Fulton%20County,%20GA","https://www.google.com/maps/search/16500%20BLACK%20OAK%20RD%20Fulton%20County,%20GA",34.1827722,-84.2695037
40,7922,7445 ABSINTH DR,3/3/22,"$365,000.00 ",365000,156.7196222,2329,2010,"7445 ABSINTH DR Fulton County, GA","7445%20ABSINTH%20DR%20Fulton%20County,%20GA","https://www.google.com/maps/search/7445%20ABSINTH%20DR%20Fulton%20County,%20GA",33.6683631,-84.6389404
41,7923,3935 SHANDRA WAY,3/3/22,"$216,000.00 ",216000,131.8681319,1638,1974,"3935 SHANDRA WAY Fulton County, GA","3935%20SHANDRA%20WAY%20Fulton%20County,%20GA","https://www.google.com/maps/search/3935%20SHANDRA%20WAY%20Fulton%20County,%20GA",33.5891916,-84.522649
42,7924,4157 WOODLAND PARK DR LOT 31,3/2/22,"$385,000.00 ",385000,177.5830258,2168,2018,"4157 WOODLAND PARK DR LOT 31 Fulton County, GA","4157%20WOODLAND%20PARK%20DR%20LOT%2031%20Fulton%20County,%20GA","https://www.google.com/maps/search/4157%20WOODLAND%20PARK%20DR%20LOT%2031%20Fulton%20County,%20GA",33.7574984,-84.5237406
43,7925,4787 ALBANY WAY,3/2/22,"$485,000.00 ",485000,125.5175983,3864,2018,"4787 ALBANY WAY Fulton County, GA","4787%20ALBANY%20WAY%20Fulton%20County,%20GA","https://www.google.com/maps/search/4787%20ALBANY%20WAY%20Fulton%20County,%20GA",33.6549388,-84.5445379
44,7926,4627 DALMER RD NE,3/2/22,"$1,599,900.00 ",1599900,335.8312343,4764,2006,"4627 DALMER RD NE Fulton County, GA","4627%20DALMER%20RD%20NE%20Fulton%20County,%20GA","https://www.google.com/maps/search/4627%20DALMER%20RD%20NE%20Fulton%20County,%20GA",33.8812809,-84.37396
45,7927,1080 PEACHTREE ST NE UNIT 2301,3/2/22,"$400,000.00 ",400000,461.8937644,866,2008,"1080 PEACHTREE ST NE UNIT 2301 Fulton County, GA","1080%20PEACHTREE%20ST%20NE%20UNIT%202301%20Fulton%20County,%20GA","https://www.google.com/maps/search/1080%20PEACHTREE%20ST%20NE%20UNIT%202301%20Fulton%20County,%20GA",33.783839,-84.3838658
46,7928,4325 VALLEY LAKE TER,3/2/22,"$362,000.00 ",362000,198.4649123,1824,1977,"4325 VALLEY LAKE TER Fulton County, GA","4325%20VALLEY%20LAKE%20TER%20Fulton%20County,%20GA","https://www.google.com/maps/search/4325%20VALLEY%20LAKE%20TER%20Fulton%20County,%20GA",33.6385951,-84.5330519
47,7929,6040 COLDWATER POINT,3/2/22,"$600,000.00 ",600000,181.0500905,3314,2006,"6040 COLDWATER POINT Fulton County, GA","6040%20COLDWATER%20POINT%20Fulton%20County,%20GA","https://www.google.com/maps/search/6040%20COLDWATER%20POINT%20Fulton%20County,%20GA",34.037934,-84.1826787
48,7930,395 WAVETREE DR,3/2/22,"$325,000.00 ",325000,212.6963351,1528,1977,"395 WAVETREE DR Fulton County, GA","395%20WAVETREE%20DR%20Fulton%20County,%20GA","https://www.google.com/maps/search/395%20WAVETREE%20DR%20Fulton%20County,%20GA",34.0456554,-84.3652743
49,7931,2301 PINETREE TRL,3/2/22,"$132,000.00 ",132000,90.04092769,1466,1990,"2301 PINETREE TRL Fulton County, GA","2301%20PINETREE%20TRL%20Fulton%20County,%20GA","https://www.google.com/maps/search/2301%20PINETREE%20TRL%20Fulton%20County,%20GA",34.0811105,-84.2902315
50,7932,951 GLENWOOD AVE SE 1706,3/2/22,"$485,000.00 ",485000,270.6473214,1792,2004,"951 GLENWOOD AVE SE 1706 Fulton County, GA","951%20GLENWOOD%20AVE%20SE%201706%20Fulton%20County,%20GA","https://www.google.com/maps/search/951%20GLENWOOD%20AVE%20SE%201706%20Fulton%20County,%20GA",33.7384645,-84.3562927
51,7933,585 MC WILLIAMS RD SE UNIT 301,3/2/22,"$279,990.00 ",279990,153,1830,2021,"585 MC WILLIAMS RD SE UNIT 301 Fulton County, GA","585%20MC%20WILLIAMS%20RD%20SE%20UNIT%20301%20Fulton%20County,%20GA","https://www.google.com/maps/search/585%20MC%20WILLIAMS%20RD%20SE%20UNIT%20301%20Fulton%20County,%20GA",33.6878006,-84.3695835
52,7934,2134 JERNIGAN DR SE,3/2/22,"$250,000.00 ",250000,203.4174125,1229,1950,"2134 JERNIGAN DR SE Fulton County, GA","2134%20JERNIGAN%20DR%20SE%20Fulton%20County,%20GA","https://www.google.com/maps/search/2134%20JERNIGAN%20DR%20SE%20Fulton%20County,%20GA",33.6958417,-84.3720505
53,7935,1074 HOBSON ST SW,3/2/22,"$250,000.00 ",250000,221.6312057,1128,1930,"1074 HOBSON ST SW Fulton County, GA","1074%20HOBSON%20ST%20SW%20Fulton%20County,%20GA","https://www.google.com/maps/search/1074%20HOBSON%20ST%20SW%20Fulton%20County,%20GA",33.725606,-84.4051751
54,7936,2900 PEARL ST,3/2/22,"$285,000.00 ",285000,252.6595745,1128,1922,"2900 PEARL ST Fulton County, GA","2900%20PEARL%20ST%20Fulton%20County,%20GA","https://www.google.com/maps/search/2900%20PEARL%20ST%20Fulton%20County,%20GA",33.6762503,-84.4502279
55,7937,330 OLD PRESTON CT,3/2/22,"$484,000.00 ",484000,224.2817424,2158,1993,"330 OLD PRESTON CT Fulton County, GA","330%20OLD%20PRESTON%20CT%20Fulton%20County,%20GA","https://www.google.com/maps/search/330%20OLD%20PRESTON%20CT%20Fulton%20County,%20GA",34.0232984,-84.2569146
56,7938,35 SHERIDAN DR NE,3/2/22,"$199,000.00 ",199000,184.2592593,1080,1940,"35 SHERIDAN DR NE Fulton County, GA","35%20SHERIDAN%20DR%20NE%20Fulton%20County,%20GA","https://www.google.com/maps/search/35%20SHERIDAN%20DR%20NE%20Fulton%20County,%20GA",33.8323427,-84.382988
57,7939,264 NINETEENTH ST NW # 2303,3/2/22,"$290,000.00 ",290000,249.1408935,1164,2006,"264 NINETEENTH ST NW # 2303 Fulton County, GA","264%20NINETEENTH%20ST%20NW%20#%202303%20Fulton%20County,%20GA","https://www.google.com/maps/search/264%20NINETEENTH%20ST%20NW%20#%202303%20Fulton%20County,%20GA",33.7931441,-84.3970335
58,7940,100 PALISADES RD NE,3/2/22,"$1,426,000.00 ",1426000,322.4056071,4423,2003,"100 PALISADES RD NE Fulton County, GA","100%20PALISADES%20RD%20NE%20Fulton%20County,%20GA","https://www.google.com/maps/search/100%20PALISADES%20RD%20NE%20Fulton%20County,%20GA",33.8062229,-84.3881048
59,7941,58 PEACHTREE MEMORIAL DR NW UNIT 78 1,3/2/22,"$394,900.00 ",394900,291.00958,1357,1924,"58 PEACHTREE MEMORIAL DR NW UNIT 78 1 Fulton County, GA","58%20PEACHTREE%20MEMORIAL%20DR%20NW%20UNIT%2078%201%20Fulton%20County,%20GA","https://www.google.com/maps/search/58%20PEACHTREE%20MEMORIAL%20DR%20NW%20UNIT%2078%201%20Fulton%20County,%20GA",33.8168888,-84.3931714
60,7942,253 BLANTON RD NW,3/2/22,"$1,550,000.00 ",1550000,684.9315068,2263,1963,"253 BLANTON RD NW Fulton County, GA","253%20BLANTON%20RD%20NW%20Fulton%20County,%20GA","https://www.google.com/maps/search/253%20BLANTON%20RD%20NW%20Fulton%20County,%20GA",33.8726966,-84.3977928
61,7943,6278 MOUNTAIN BROOK WAY NW,3/2/22,"$1,400,000.00 ",1400000,493.1313843,2839,1967,"6278 MOUNTAIN BROOK WAY NW Fulton County, GA","6278%20MOUNTAIN%20BROOK%20WAY%20NW%20Fulton%20County,%20GA","https://www.google.com/maps/search/6278%20MOUNTAIN%20BROOK%20WAY%20NW%20Fulton%20County,%20GA",33.9268943,-84.4141069
62,7944,6890 PEACHTREE DUNWOODY RD UNIT 104,3/2/22,"$460,000.00 ",460000,333.5750544,1379,2021,"6890 PEACHTREE DUNWOODY RD UNIT 104 Fulton County, GA","6890%20PEACHTREE%20DUNWOODY%20RD%20UNIT%20104%20Fulton%20County,%20GA","https://www.google.com/maps/search/6890%20PEACHTREE%20DUNWOODY%20RD%20UNIT%20104%20Fulton%20County,%20GA",33.9431426,-84.3526872
63,7945,240 SOFTWOOD CIR,3/2/22,"$472,000.00 ",472000,287.804878,1640,1983,"240 SOFTWOOD CIR Fulton County, GA","240%20SOFTWOOD%20CIR%20Fulton%20County,%20GA","https://www.google.com/maps/search/240%20SOFTWOOD%20CIR%20Fulton%20County,%20GA",34.0104744,-84.3133394
64,7946,25 HALL MANOR,3/2/22,"$407,000.00 ",407000,260.8974359,1560,2000,"25 HALL MANOR Fulton County, GA","25%20HALL%20MANOR%20Fulton%20County,%20GA","https://www.google.com/maps/search/25%20HALL%20MANOR%20Fulton%20County,%20GA",33.996984,-84.2814881
65,7947,2930 SHURBURNE DR,3/2/22,"$421,295.00 ",421295,210.2270459,2004,1983,"2930 SHURBURNE DR Fulton County, GA","2930%20SHURBURNE%20DR%20Fulton%20County,%20GA","https://www.google.com/maps/search/2930%20SHURBURNE%20DR%20Fulton%20County,%20GA",33.9953384,-84.2741931
66,7948,5348 THE SAVOY,3/2/22,"$251,000.00 ",251000,215.0814053,1167,1968,"5348 THE SAVOY Fulton County, GA","5348%20THE%20SAVOY%20Fulton%20County,%20GA","https://www.google.com/maps/search/5348%20THE%20SAVOY%20Fulton%20County,%20GA",33.6097795,-84.4582655
67,7949,22 AIRLINE ST NE UNIT 101,3/2/22,"$445,000.00 ",445000,456.8788501,974,2021,"22 AIRLINE ST NE UNIT 101 Fulton County, GA","22%20AIRLINE%20ST%20NE%20UNIT%20101%20Fulton%20County,%20GA","https://www.google.com/maps/search/22%20AIRLINE%20ST%20NE%20UNIT%20101%20Fulton%20County,%20GA",33.7549384,-84.3671817
68,7950,338 GLENWOOD AVE SE,3/2/22,"$435,000.00 ",435000,383.5978836,1134,1992,"338 GLENWOOD AVE SE Fulton County, GA","338%20GLENWOOD%20AVE%20SE%20Fulton%20County,%20GA","https://www.google.com/maps/search/338%20GLENWOOD%20AVE%20SE%20Fulton%20County,%20GA",33.7427214,-84.3769975
69,7951,690 PIEDMONT AVE,3/2/22,"$247,500.00 ",247500,313.2911392,790,1919,"690 PIEDMONT AVE Fulton County, GA","690%20PIEDMONT%20AVE%20Fulton%20County,%20GA","https://www.google.com/maps/search/690%20PIEDMONT%20AVE%20Fulton%20County,%20GA",33.7733952,-84.3819326
2581,10463,100 NEMORIA CT,5/31/22,"$525,000.00 ",525000,150.3436426,3492,2019,"100 NEMORIA CT Fulton County, GA","100%20NEMORIA%20CT%20Fulton%20County,%20GA","https://www.google.com/maps/search/100%20NEMORIA%20CT%20Fulton%20County,%20GA",33.62715796,-84.69914175
71,7953,721 ERIN AVE SW,3/2/22,"$595,000.00 ",595000,352.0710059,1690,1920,"721 ERIN AVE SW Fulton County, GA","721%20ERIN%20AVE%20SW%20Fulton%20County,%20GA","https://www.google.com/maps/search/721%20ERIN%20AVE%20SW%20Fulton%20County,%20GA",33.7197486,-84.4114087
72,7954,1463 SAINT MICHAEL AVE,3/2/22,"$365,000.00 ",365000,350.9615385,1040,1929,"1463 SAINT MICHAEL AVE Fulton County, GA","1463%20SAINT%20MICHAEL%20AVE%20Fulton%20County,%20GA","https://www.google.com/maps/search/1463%20SAINT%20MICHAEL%20AVE%20Fulton%20County,%20GA",33.6952459,-84.436621
73,7955,3640 PRINCETON AVE,3/2/22,"$290,000.00 ",290000,139.4230769,2080,2007,"3640 PRINCETON AVE Fulton County, GA","3640%20PRINCETON%20AVE%20Fulton%20County,%20GA","https://www.google.com/maps/search/3640%20PRINCETON%20AVE%20Fulton%20County,%20GA",33.6559518,-84.4371443
74,7956,4140 WILL LEE RD,3/2/22,"$275,000.00 ",275000,229.9331104,1196,1972,"4140 WILL LEE RD Fulton County, GA","4140%20WILL%20LEE%20RD%20Fulton%20County,%20GA","https://www.google.com/maps/search/4140%20WILL%20LEE%20RD%20Fulton%20County,%20GA",33.6313869,-84.5237549
75,7957,115 GOLD COVE LN LOT 2A,3/2/22,"$415,000.00 ",415000,224.3243243,1850,2007,"115 GOLD COVE LN LOT 2A Fulton County, GA","115%20GOLD%20COVE%20LN%20LOT%202A%20Fulton%20County,%20GA","https://www.google.com/maps/search/115%20GOLD%20COVE%20LN%20LOT%202A%20Fulton%20County,%20GA",34.0441069,-84.176753
76,7958,3235 ROSWELL RD NE # 615,3/2/22,"$372,400.00 ",372400,337.0135747,1105,1999,"3235 ROSWELL RD NE # 615 Fulton County, GA","3235%20ROSWELL%20RD%20NE%20#%20615%20Fulton%20County,%20GA","https://www.google.com/maps/search/3235%20ROSWELL%20RD%20NE%20#%20615%20Fulton%20County,%20GA",33.8433751,-84.3789797
77,7959,390 SEVENTEENTH ST NW LOT 4007,3/2/22,"$272,000.00 ",272000,220.7792208,1232,2007,"390 SEVENTEENTH ST NW LOT 4007 Fulton County, GA","390%20SEVENTEENTH%20ST%20NW%20LOT%204007%20Fulton%20County,%20GA","https://www.google.com/maps/search/390%20SEVENTEENTH%20ST%20NW%20LOT%204007%20Fulton%20County,%20GA",33.7903038,-84.3994771
78,7960,2736 RIDGEMORE RD NW,3/2/22,"$635,000.00 ",635000,378.8782816,1676,1954,"2736 RIDGEMORE RD NW Fulton County, GA","2736%20RIDGEMORE%20RD%20NW%20Fulton%20County,%20GA","https://www.google.com/maps/search/2736%20RIDGEMORE%20RD%20NW%20Fulton%20County,%20GA",33.829922,-84.446355
79,7961,660 BROWNLEE RD SW,3/2/22,"$339,000.00 ",339000,147.3913043,2300,1940,"660 BROWNLEE RD SW Fulton County, GA","660%20BROWNLEE%20RD%20SW%20Fulton%20County,%20GA","https://www.google.com/maps/search/660%20BROWNLEE%20RD%20SW%20Fulton%20County,%20GA",33.7374397,-84.4954862
80,7962,6505 CANOPY DR,3/2/22,"$1,205,000.00 ",1205000,314.2931664,3834,2018,"6505 CANOPY DR Fulton County, GA","6505%20CANOPY%20DR%20Fulton%20County,%20GA","https://www.google.com/maps/search/6505%20CANOPY%20DR%20Fulton%20County,%20GA",33.9329451,-84.3681081
81,7963,2700 PINE TREE RD 1204,3/2/22,"$210,000.00 ",210000,267.8571429,784,2000,"2700 PINE TREE RD 1204 Fulton County, GA","2700%20PINE%20TREE%20RD%201204%20Fulton%20County,%20GA","https://www.google.com/maps/search/2700%20PINE%20TREE%20RD%201204%20Fulton%20County,%20GA",33.8284249,-84.359152
82,7964,195 SAILWIND CT,3/2/22,"$500,000.00 ",500000,279.0178571,1792,1974,"195 SAILWIND CT Fulton County, GA","195%20SAILWIND%20CT%20Fulton%20County,%20GA","https://www.google.com/maps/search/195%20SAILWIND%20CT%20Fulton%20County,%20GA",34.0167547,-84.3159697
83,7965,815 CLUB CHASE CT,3/2/22,"$550,000.00 ",550000,188.2916809,2921,1993,"815 CLUB CHASE CT Fulton County, GA","815%20CLUB%20CHASE%20CT%20Fulton%20County,%20GA","https://www.google.com/maps/search/815%20CLUB%20CHASE%20CT%20Fulton%20County,%20GA",33.9954596,-84.3097643
84,7966,3530 SABLE GLEN LN,3/2/22,"$265,000.00 ",265000,183.0110497,1448,2004,"3530 SABLE GLEN LN Fulton County, GA","3530%20SABLE%20GLEN%20LN%20Fulton%20County,%20GA","https://www.google.com/maps/search/3530%20SABLE%20GLEN%20LN%20Fulton%20County,%20GA",33.5968148,-84.5048542
85,7967,6305 OLMADISON PL,3/2/22,"$220,000.00 ",220000,123.8738739,1776,2019,"6305 OLMADISON PL Fulton County, GA","6305%20OLMADISON%20PL%20Fulton%20County,%20GA","https://www.google.com/maps/search/6305%20OLMADISON%20PL%20Fulton%20County,%20GA",33.5797524,-84.4688432
86,7968,22 AIRLINE ST NE UNIT 108,3/2/22,"$359,900.00 ",359900,443.7731196,811,2021,"22 AIRLINE ST NE UNIT 108 Fulton County, GA","22%20AIRLINE%20ST%20NE%20UNIT%20108%20Fulton%20County,%20GA","https://www.google.com/maps/search/22%20AIRLINE%20ST%20NE%20UNIT%20108%20Fulton%20County,%20GA",33.7549384,-84.3671817
87,7969,505 HOPKINS ST SW,3/2/22,"$550,000.00 ",550000,333.535476,1649,1920,"505 HOPKINS ST SW Fulton County, GA","505%20HOPKINS%20ST%20SW%20Fulton%20County,%20GA","https://www.google.com/maps/search/505%20HOPKINS%20ST%20SW%20Fulton%20County,%20GA",33.7412486,-84.4308346
88,7970,1525 MCCLELLAND AVE,3/2/22,"$175,000.00 ",175000,159.0909091,1100,1960,"1525 MCCLELLAND AVE Fulton County, GA","1525%20MCCLELLAND%20AVE%20Fulton%20County,%20GA","https://www.google.com/maps/search/1525%20MCCLELLAND%20AVE%20Fulton%20County,%20GA",33.7006001,-84.4386167
89,7971,1845 WEST LYLE AVE,3/2/22,"$360,000.00 ",360000,273.7642586,1315,1927,"1845 WEST LYLE AVE Fulton County, GA","1845%20WEST%20LYLE%20AVE%20Fulton%20County,%20GA","https://www.google.com/maps/search/1845%20WEST%20LYLE%20AVE%20Fulton%20County,%20GA",33.6664086,-84.4492847
90,7972,171 BROOK LN,3/2/22,"$700,000.00 ",700000,252.2522523,2775,1997,"171 BROOK LN Fulton County, GA","171%20BROOK%20LN%20Fulton%20County,%20GA","https://www.google.com/maps/search/171%20BROOK%20LN%20Fulton%20County,%20GA",34.0879042,-84.3646172
91,7973,8908 CARROLL MANOR DR,3/1/22,"$320,000.00 ",320000,205.1282051,1560,1984,"8908 CARROLL MANOR DR Fulton County, GA","8908%20CARROLL%20MANOR%20DR%20Fulton%20County,%20GA","https://www.google.com/maps/search/8908%20CARROLL%20MANOR%20DR%20Fulton%20County,%20GA",34.000429,-84.3396
92,7974,2922 RIDGEVIEW DR,3/1/22,"$266,127.00 ",266127,173.2597656,1536,2021,"2922 RIDGEVIEW DR Fulton County, GA","2922%20RIDGEVIEW%20DR%20Fulton%20County,%20GA","https://www.google.com/maps/search/2922%20RIDGEVIEW%20DR%20Fulton%20County,%20GA",33.666276,-84.494339
93,7975,2105 NISKEY LAKE RD SW,3/1/22,"$275,000.00 ",275000,216.1949686,1272,1958,"2105 NISKEY LAKE RD SW Fulton County, GA","2105%20NISKEY%20LAKE%20RD%20SW%20Fulton%20County,%20GA","https://www.google.com/maps/search/2105%20NISKEY%20LAKE%20RD%20SW%20Fulton%20County,%20GA",33.697231,-84.5282602
94,7976,1412 STONE BAY DR,3/1/22,"$426,000.00 ",426000,126.899017,3357,2009,"1412 STONE BAY DR Fulton County, GA","1412%20STONE%20BAY%20DR%20Fulton%20County,%20GA","https://www.google.com/maps/search/1412%20STONE%20BAY%20DR%20Fulton%20County,%20GA",33.7155275,-84.5730466
95,7977,6515 NEWBORN DR,3/1/22,"$302,000.00 ",302000,191.6243655,1576,1964,"6515 NEWBORN DR Fulton County, GA","6515%20NEWBORN%20DR%20Fulton%20County,%20GA","https://www.google.com/maps/search/6515%20NEWBORN%20DR%20Fulton%20County,%20GA",33.657146,-84.6013615
96,7978,131 AUSTIN DR,3/1/22,"$810,000.00 ",810000,240.6417112,3366,2015,"131 AUSTIN DR Fulton County, GA","131%20AUSTIN%20DR%20Fulton%20County,%20GA","https://www.google.com/maps/search/131%20AUSTIN%20DR%20Fulton%20County,%20GA",33.9216669,-84.367451
97,7979,700 PARK REGENCY PL 1001,3/1/22,"$365,000.00 ",365000,423.9256678,861,2001,"700 PARK REGENCY PL 1001 Fulton County, GA","700%20PARK%20REGENCY%20PL%201001%20Fulton%20County,%20GA","https://www.google.com/maps/search/700%20PARK%20REGENCY%20PL%201001%20Fulton%20County,%20GA",33.8545381,-84.364575
98,7980,3630 PEACHTREE RD NE UNIT 2706,3/1/22,"$720,000.00 ",720000,547.5285171,1315,2010,"3630 PEACHTREE RD NE UNIT 2706 Fulton County, GA","3630%20PEACHTREE%20RD%20NE%20UNIT%202706%20Fulton%20County,%20GA","https://www.google.com/maps/search/3630%20PEACHTREE%20RD%20NE%20UNIT%202706%20Fulton%20County,%20GA",33.854473,-84.358535
99,7981,1385 MIDDLESEX AVE,3/1/22,"$2,300,000.00 ",2300000,573.8522954,4008,2016,"1385 MIDDLESEX AVE Fulton County, GA","1385%20MIDDLESEX%20AVE%20Fulton%20County,%20GA","https://www.google.com/maps/search/1385%20MIDDLESEX%20AVE%20Fulton%20County,%20GA",33.7924084,-84.3626458
100,7982,4262 WIEUCA RD NE,3/1/22,"$2,300,000.00 ",2300000,510.0909293,4509,2019,"4262 WIEUCA RD NE Fulton County, GA","4262%20WIEUCA%20RD%20NE%20Fulton%20County,%20GA","https://www.google.com/maps/search/4262%20WIEUCA%20RD%20NE%20Fulton%20County,%20GA",33.8685905,-84.3731882
101,7983,4300 CHASTAIN WALK NE # 4336,3/1/22,"$245,500.00 ",245500,208.5811385,1177,1960,"4300 CHASTAIN WALK NE # 4336 Fulton County, GA","4300%20CHASTAIN%20WALK%20NE%20#%204336%20Fulton%20County,%20GA","https://www.google.com/maps/search/4300%20CHASTAIN%20WALK%20NE%20#%204336%20Fulton%20County,%20GA",33.8726227,-84.382001
102,7984,2259 STEPHEN LONG DR NE,3/1/22,"$875,000.00 ",875000,289.1606081,3026,1900,"2259 STEPHEN LONG DR NE Fulton County, GA","2259%20STEPHEN%20LONG%20DR%20NE%20Fulton%20County,%20GA","https://www.google.com/maps/search/2259%20STEPHEN%20LONG%20DR%20NE%20Fulton%20County,%20GA",33.8167082,-84.3820853
103,7985,3 SPRING GREEN PL NW,3/1/22,"$320,000.00 ",320000,242.4242424,1320,1972,"3 SPRING GREEN PL NW Fulton County, GA","3%20SPRING%20GREEN%20PL%20NW%20Fulton%20County,%20GA","https://www.google.com/maps/search/3%20SPRING%20GREEN%20PL%20NW%20Fulton%20County,%20GA",33.8228891,-84.4373902
104,7986,864 BENTLEY DR,3/1/22,"$319,990.00 ",319990,160.8798391,1989,2021,"864 BENTLEY DR Fulton County, GA","864%20BENTLEY%20DR%20Fulton%20County,%20GA","https://www.google.com/maps/search/864%20BENTLEY%20DR%20Fulton%20County,%20GA",33.6169006,-84.612905
105,7987,160 THATCHING LN,3/1/22,"$470,000.00 ",470000,232.4431256,2022,1990,"160 THATCHING LN Fulton County, GA","160%20THATCHING%20LN%20Fulton%20County,%20GA","https://www.google.com/maps/search/160%20THATCHING%20LN%20Fulton%20County,%20GA",34.0593753,-84.2095788
2054,9936,1005 SIGNAL POINTE,2/11/22,"$926,000.00 ",926000,315.7176952,2933,1999,"1005 SIGNAL POINTE Fulton County, GA","1005%20SIGNAL%20POINTE%20Fulton%20County,%20GA","https://www.google.com/maps/search/1005%20SIGNAL%20POINTE%20Fulton%20County,%20GA",34.0850651,-84.23632796
107,7989,280 SPRING RIDGE TRC,3/1/22,"$600,000.00 ",600000,194.2376174,3089,1984,"280 SPRING RIDGE TRC Fulton County, GA","280%20SPRING%20RIDGE%20TRC%20Fulton%20County,%20GA","https://www.google.com/maps/search/280%20SPRING%20RIDGE%20TRC%20Fulton%20County,%20GA",34.0183462,-84.2898833
108,7990,737 WOOD BEND CT,3/1/22,"$260,000.00 ",260000,161.2903226,1612,2005,"737 WOOD BEND CT Fulton County, GA","737%20WOOD%20BEND%20CT%20Fulton%20County,%20GA","https://www.google.com/maps/search/737%20WOOD%20BEND%20CT%20Fulton%20County,%20GA",33.5618374,-84.4721645
109,7991,12745 DOUGLAS RD,3/1/22,"$427,000.00 ",427000,196.9557196,2168,1970,"12745 DOUGLAS RD Fulton County, GA","12745%20DOUGLAS%20RD%20Fulton%20County,%20GA","https://www.google.com/maps/search/12745%20DOUGLAS%20RD%20Fulton%20County,%20GA",34.0899285,-84.2066139
110,7992,755 NETTLEBROOK LN,3/1/22,"$1,350,000.00 ",1350000,280.0248911,4821,2000,"755 NETTLEBROOK LN Fulton County, GA","755%20NETTLEBROOK%20LN%20Fulton%20County,%20GA","https://www.google.com/maps/search/755%20NETTLEBROOK%20LN%20Fulton%20County,%20GA",34.1305274,-84.3099477
4273,12155,1026 SAINT CHARLES AVE NE # 15,6/30/22,"$507,000.00 ",507000,375.5555556,1350,1920,"1026 SAINT CHARLES AVE NE # 15 Fulton County, GA","1026%20SAINT%20CHARLES%20AVE%20NE%20#%2015%20Fulton%20County,%20GA","https://www.google.com/maps/search/1026%20SAINT%20CHARLES%20AVE%20NE%20#%2015%20Fulton%20County,%20GA",33.77571669,-84.35392428
112,7994,6249 COLONIAL VIEW,3/1/22,"$240,000.00 ",240000,132.4503311,1812,2006,"6249 COLONIAL VIEW Fulton County, GA","6249%20COLONIAL%20VIEW%20Fulton%20County,%20GA","https://www.google.com/maps/search/6249%20COLONIAL%20VIEW%20Fulton%20County,%20GA",33.6119003,-84.5953499
113,7995,10180 GROOMSBRIDGE RD,3/1/22,"$900,000.00 ",900000,223.8249192,4021,1990,"10180 GROOMSBRIDGE RD Fulton County, GA","10180%20GROOMSBRIDGE%20RD%20Fulton%20County,%20GA","https://www.google.com/maps/search/10180%20GROOMSBRIDGE%20RD%20Fulton%20County,%20GA",34.0294117,-84.1994894
114,7996,3501 ROSWELL RD NE 206,3/1/22,"$265,000.00 ",265000,181.010929,1464,1963,"3501 ROSWELL RD NE 206 Fulton County, GA","3501%20ROSWELL%20RD%20NE%20206%20Fulton%20County,%20GA","https://www.google.com/maps/search/3501%20ROSWELL%20RD%20NE%20206%20Fulton%20County,%20GA",33.8507358,-84.3823713
115,7997,1421 PEACHTREE ST NE # 411,3/1/22,"$260,000.00 ",260000,260.2602603,999,1960,"1421 PEACHTREE ST NE # 411 Fulton County, GA","1421%20PEACHTREE%20ST%20NE%20#%20411%20Fulton%20County,%20GA","https://www.google.com/maps/search/1421%20PEACHTREE%20ST%20NE%20#%20411%20Fulton%20County,%20GA",33.7935613,-84.386655
116,7998,216 SEMEL DR NW LOT 364,3/1/22,"$357,000.00 ",357000,278.0373832,1284,2007,"216 SEMEL DR NW LOT 364 Fulton County, GA","216%20SEMEL%20DR%20NW%20LOT%20364%20Fulton%20County,%20GA","https://www.google.com/maps/search/216%20SEMEL%20DR%20NW%20LOT%20364%20Fulton%20County,%20GA",33.8025284,-84.4000879
117,7999,1846 HARPER ST NW,3/1/22,"$300,000.00 ",300000,370.3703704,810,1950,"1846 HARPER ST NW Fulton County, GA","1846%20HARPER%20ST%20NW%20Fulton%20County,%20GA","https://www.google.com/maps/search/1846%20HARPER%20ST%20NW%20Fulton%20County,%20GA",33.8056756,-84.4179294
118,8000,622 GRANVILLE CT,3/1/22,"$207,000.00 ",207000,291.1392405,711,1989,"622 GRANVILLE CT Fulton County, GA","622%20GRANVILLE%20CT%20Fulton%20County,%20GA","https://www.google.com/maps/search/622%20GRANVILLE%20CT%20Fulton%20County,%20GA",33.931074,-84.3605259
119,8001,3025 SABLE TRL,3/1/22,"$290,000.00 ",290000,112.7965772,2571,2005,"3025 SABLE TRL Fulton County, GA","3025%20SABLE%20TRL%20Fulton%20County,%20GA","https://www.google.com/maps/search/3025%20SABLE%20TRL%20Fulton%20County,%20GA",33.601683,-84.498067
120,8002,2830 FOXLAIR TRL,3/1/22,"$174,000.00 ",174000,167.3076923,1040,1972,"2830 FOXLAIR TRL Fulton County, GA","2830%20FOXLAIR%20TRL%20Fulton%20County,%20GA","https://www.google.com/maps/search/2830%20FOXLAIR%20TRL%20Fulton%20County,%20GA",33.5762742,-84.4985872
121,8003,1004 ARDWICK CT,3/1/22,"$310,100.00 ",310100,124.588188,2489,2006,"1004 ARDWICK CT Fulton County, GA","1004%20ARDWICK%20CT%20Fulton%20County,%20GA","https://www.google.com/maps/search/1004%20ARDWICK%20CT%20Fulton%20County,%20GA",33.6554846,-84.352685
122,8004,855 PEACHTREE ST NE UNIT 1605,3/1/22,"$440,000.00 ",440000,448.0651731,982,2008,"855 PEACHTREE ST NE UNIT 1605 Fulton County, GA","855%20PEACHTREE%20ST%20NE%20UNIT%201605%20Fulton%20County,%20GA","https://www.google.com/maps/search/855%20PEACHTREE%20ST%20NE%20UNIT%201605%20Fulton%20County,%20GA",33.7777998,-84.383904
123,8005,595 SOUTH EVELYN PL NW,3/1/22,"$285,000.00 ",285000,269.6310312,1057,1940,"595 SOUTH EVELYN PL NW Fulton County, GA","595%20SOUTH%20EVELYN%20PL%20NW%20Fulton%20County,%20GA","https://www.google.com/maps/search/595%20SOUTH%20EVELYN%20PL%20NW%20Fulton%20County,%20GA",33.7715301,-84.4456044
124,8006,2094 HIGHVIEW RD SW,3/1/22,"$765,200.00 ",765200,300.0784314,2550,1958,"2094 HIGHVIEW RD SW Fulton County, GA","2094%20HIGHVIEW%20RD%20SW%20Fulton%20County,%20GA","https://www.google.com/maps/search/2094%20HIGHVIEW%20RD%20SW%20Fulton%20County,%20GA",33.7300537,-84.4577734
125,8007,12817 WATERSIDE DR,3/1/22,"$785,000.00 ",785000,300.1912046,2615,2001,"12817 WATERSIDE DR Fulton County, GA","12817%20WATERSIDE%20DR%20Fulton%20County,%20GA","https://www.google.com/maps/search/12817%20WATERSIDE%20DR%20Fulton%20County,%20GA",34.0916502,-84.3564244
126,8008,14121 TRIPLE CROWN DR,3/1/22,"$1,450,000.00 ",1450000,309.0366581,4692,2005,"14121 TRIPLE CROWN DR Fulton County, GA","14121%20TRIPLE%20CROWN%20DR%20Fulton%20County,%20GA","https://www.google.com/maps/search/14121%20TRIPLE%20CROWN%20DR%20Fulton%20County,%20GA",34.1296766,-84.3346898
127,8009,3079 OAKSIDE CIR,3/1/22,"$440,000.00 ",440000,283.8709677,1550,2004,"3079 OAKSIDE CIR Fulton County, GA","3079%20OAKSIDE%20CIR%20Fulton%20County,%20GA","https://www.google.com/maps/search/3079%20OAKSIDE%20CIR%20Fulton%20County,%20GA",34.1076768,-84.2702161
3623,11505,1029 PIEDMONT AVE NE # 102,5/11/22,"$439,000.00 ",439000,370.464135,1185,2001,"1029 PIEDMONT AVE NE # 102 Fulton County, GA","1029%20PIEDMONT%20AVE%20NE%20#%20102%20Fulton%20County,%20GA","https://www.google.com/maps/search/1029%20PIEDMONT%20AVE%20NE%20#%20102%20Fulton%20County,%20GA",33.78280606,-84.37974636
129,8011,475 DARROW DR,3/1/22,"$995,000.00 ",995000,243.6336925,4084,1986,"475 DARROW DR Fulton County, GA","475%20DARROW%20DR%20Fulton%20County,%20GA","https://www.google.com/maps/search/475%20DARROW%20DR%20Fulton%20County,%20GA",34.0032377,-84.2042049
3283,11165,1042 SAINT CHARLES AVE NE # 7,5/18/22,"$242,500.00 ",242500,336.8055556,720,1930,"1042 SAINT CHARLES AVE NE # 7 Fulton County, GA","1042%20SAINT%20CHARLES%20AVE%20NE%20#%207%20Fulton%20County,%20GA","https://www.google.com/maps/search/1042%20SAINT%20CHARLES%20AVE%20NE%20#%207%20Fulton%20County,%20GA",33.77571669,-84.35392428
131,8013,120 LAFAYETTE DR NE # 12,3/1/22,"$568,500.00 ",568500,437.3076923,1300,1920,"120 LAFAYETTE DR NE # 12 Fulton County, GA","120%20LAFAYETTE%20DR%20NE%20#%2012%20Fulton%20County,%20GA","https://www.google.com/maps/search/120%20LAFAYETTE%20DR%20NE%20#%2012%20Fulton%20County,%20GA",33.789195,-84.3783856
132,8014,1735 PEACHTREE ST NE 203,3/1/22,"$405,250.00 ",405250,251.0842627,1614,2000,"1735 PEACHTREE ST NE 203 Fulton County, GA","1735%20PEACHTREE%20ST%20NE%20203%20Fulton%20County,%20GA","https://www.google.com/maps/search/1735%20PEACHTREE%20ST%20NE%20203%20Fulton%20County,%20GA",33.8013463,-84.3902648
133,8015,6564 LONG ACRES DR NW,3/1/22,"$510,000.00 ",510000,270.4135737,1886,1953,"6564 LONG ACRES DR NW Fulton County, GA","6564%20LONG%20ACRES%20DR%20NW%20Fulton%20County,%20GA","https://www.google.com/maps/search/6564%20LONG%20ACRES%20DR%20NW%20Fulton%20County,%20GA",33.9346216,-84.387984
134,8016,177 MARIBEAU SQUARE NW,3/1/22,"$395,000.00 ",395000,263.3333333,1500,1970,"177 MARIBEAU SQUARE NW Fulton County, GA","177%20MARIBEAU%20SQUARE%20NW%20Fulton%20County,%20GA","https://www.google.com/maps/search/177%20MARIBEAU%20SQUARE%20NW%20Fulton%20County,%20GA",33.8174956,-84.4265037
135,8017,246 WHITWORTH DR SW,3/1/22,"$270,000.00 ",270000,261.627907,1032,1964,"246 WHITWORTH DR SW Fulton County, GA","246%20WHITWORTH%20DR%20SW%20Fulton%20County,%20GA","https://www.google.com/maps/search/246%20WHITWORTH%20DR%20SW%20Fulton%20County,%20GA",33.760473,-84.517591
136,8018,3436 COVALL CIR,3/1/22,"$400,000.00 ",400000,157.9155152,2533,2004,"3436 COVALL CIR Fulton County, GA","3436%20COVALL%20CIR%20Fulton%20County,%20GA","https://www.google.com/maps/search/3436%20COVALL%20CIR%20Fulton%20County,%20GA",33.6620555,-84.5617321
137,8019,23206 PLANTATION DR NE,3/1/22,"$225,000.00 ",225000,183.8235294,1224,1980,"23206 PLANTATION DR NE Fulton County, GA","23206%20PLANTATION%20DR%20NE%20Fulton%20County,%20GA","https://www.google.com/maps/search/23206%20PLANTATION%20DR%20NE%20Fulton%20County,%20GA",33.8369018,-84.3567892
138,8020,8325 GROGANS FERRY RD,3/1/22,"$1,530,000.00 ",1530000,293.4970267,5213,2006,"8325 GROGANS FERRY RD Fulton County, GA","8325%20GROGANS%20FERRY%20RD%20Fulton%20County,%20GA","https://www.google.com/maps/search/8325%20GROGANS%20FERRY%20RD%20Fulton%20County,%20GA",33.9812584,-84.3608181
139,8021,3445 STRATFORD RD # 705,3/1/22,"$260,000.00 ",260000,295.4545455,880,2006,"3445 STRATFORD RD # 705 Fulton County, GA","3445%20STRATFORD%20RD%20#%20705%20Fulton%20County,%20GA","https://www.google.com/maps/search/3445%20STRATFORD%20RD%20#%20705%20Fulton%20County,%20GA",33.8509119,-84.3674715
140,8022,718 TAYLOR CT UNIT 11,3/1/22,"$560,000.00 ",560000,320.7331042,1746,2017,"718 TAYLOR CT UNIT 11 Fulton County, GA","718%20TAYLOR%20CT%20UNIT%2011%20Fulton%20County,%20GA","https://www.google.com/maps/search/718%20TAYLOR%20CT%20UNIT%2011%20Fulton%20County,%20GA",33.8211718,-84.3618377
141,8023,2004 HEYWARD WAY,3/1/22,"$685,000.00 ",685000,199.127907,3440,2017,"2004 HEYWARD WAY Fulton County, GA","2004%20HEYWARD%20WAY%20Fulton%20County,%20GA","https://www.google.com/maps/search/2004%20HEYWARD%20WAY%20Fulton%20County,%20GA",34.0516421,-84.3144658
142,8024,9175 EVES CIR,3/1/22,"$585,000.00 ",585000,239.8523985,2439,1980,"9175 EVES CIR Fulton County, GA","9175%20EVES%20CIR%20Fulton%20County,%20GA","https://www.google.com/maps/search/9175%20EVES%20CIR%20Fulton%20County,%20GA",34.0034905,-84.3012115
143,8025,2985 IVEY OAKS LN,3/1/22,"$463,000.00 ",463000,199.3970715,2322,1993,"2985 IVEY OAKS LN Fulton County, GA","2985%20IVEY%20OAKS%20LN%20Fulton%20County,%20GA","https://www.google.com/maps/search/2985%20IVEY%20OAKS%20LN%20Fulton%20County,%20GA",34.0244351,-84.2745486
144,8026,3156 EAST ADDISON ST,3/1/22,"$1,475,000.00 ",1475000,266.9683258,5525,2000,"3156 EAST ADDISON ST Fulton County, GA","3156%20EAST%20ADDISON%20ST%20Fulton%20County,%20GA","https://www.google.com/maps/search/3156%20EAST%20ADDISON%20ST%20Fulton%20County,%20GA",33.978825,-84.2709023
145,8027,6280 KIMBERLY MILL RD,3/1/22,"$195,000.00 ",195000,140.8959538,1384,1983,"6280 KIMBERLY MILL RD Fulton County, GA","6280%20KIMBERLY%20MILL%20RD%20Fulton%20County,%20GA","https://www.google.com/maps/search/6280%20KIMBERLY%20MILL%20RD%20Fulton%20County,%20GA",33.5836569,-84.4872899
146,8028,395 PRATT DR UNIT 810,3/1/22,"$680,000.00 ",680000,304.1144902,2236,2020,"395 PRATT DR UNIT 810 Fulton County, GA","395%20PRATT%20DR%20UNIT%20810%20Fulton%20County,%20GA","https://www.google.com/maps/search/395%20PRATT%20DR%20UNIT%20810%20Fulton%20County,%20GA",33.7251622,-84.3757174
147,8029,510 KINGSPORT DR,3/1/22,"$480,000.00 ",480000,241.6918429,1986,1998,"510 KINGSPORT DR Fulton County, GA","510%20KINGSPORT%20DR%20Fulton%20County,%20GA","https://www.google.com/maps/search/510%20KINGSPORT%20DR%20Fulton%20County,%20GA",34.073347,-84.3261985
148,8030,301 MASONS CREEK CIR,3/1/22,"$330,000.00 ",330000,206.25,1600,2001,"301 MASONS CREEK CIR Fulton County, GA","301%20MASONS%20CREEK%20CIR%20Fulton%20County,%20GA","https://www.google.com/maps/search/301%20MASONS%20CREEK%20CIR%20Fulton%20County,%20GA",33.9922666,-84.3407456
149,8031,3992 MEADOW GLEN WAY,3/1/22,"$230,000.00 ",230000,162.8895184,1412,2001,"3992 MEADOW GLEN WAY Fulton County, GA","3992%20MEADOW%20GLEN%20WAY%20Fulton%20County,%20GA","https://www.google.com/maps/search/3992%20MEADOW%20GLEN%20WAY%20Fulton%20County,%20GA",33.5348435,-84.5889252
150,8032,907 PIEDMONT AVE NE # #5,10/31/22,"$295,000.00 ",295000,435.1032448,678,1930,"907 PIEDMONT AVE NE # #5 Fulton County, GA","907%20PIEDMONT%20AVE%20NE%20#%20#5%20Fulton%20County,%20GA","https://www.google.com/maps/search/907%20PIEDMONT%20AVE%20NE%20#%20#5%20Fulton%20County,%20GA",34.3113393,-83.8395096
151,8033,1343 WILLOW TRL SW,10/13/22,"$256,500.00 ",256500,152.3159145,1684,2001,"1343 WILLOW TRL SW Fulton County, GA","1343%20WILLOW%20TRL%20SW%20Fulton%20County,%20GA","https://www.google.com/maps/search/1343%20WILLOW%20TRL%20SW%20Fulton%20County,%20GA",33.719042,-84.4401156
152,8034,1457 VENETIAN DR SW,10/24/22,"$435,000.00 ",435000,244.5193929,1779,1945,"1457 VENETIAN DR SW Fulton County, GA","1457%20VENETIAN%20DR%20SW%20Fulton%20County,%20GA","https://www.google.com/maps/search/1457%20VENETIAN%20DR%20SW%20Fulton%20County,%20GA",33.7147414,-84.4361801
153,8035,2131 CALVERTON LN,10/17/22,"$775,000.00 ",775000,144.5895522,5360,2009,"2131 CALVERTON LN Fulton County, GA","2131%20CALVERTON%20LN%20Fulton%20County,%20GA","https://www.google.com/maps/search/2131%20CALVERTON%20LN%20Fulton%20County,%20GA",33.6953059,-84.5487755
154,8036,2361 BEECHER RD SW,10/20/22,"$320,000.00 ",320000,322.9061554,991,1950,"2361 BEECHER RD SW Fulton County, GA","2361%20BEECHER%20RD%20SW%20Fulton%20County,%20GA","https://www.google.com/maps/search/2361%20BEECHER%20RD%20SW%20Fulton%20County,%20GA",33.7248231,-84.4644159
155,8037,10455 COLONY GLEN DR,10/25/22,"$349,900.00 ",349900,318.0909091,1100,1985,"10455 COLONY GLEN DR Fulton County, GA","10455%20COLONY%20GLEN%20DR%20Fulton%20County,%20GA","https://www.google.com/maps/search/10455%20COLONY%20GLEN%20DR%20Fulton%20County,%20GA",34.0359293,-84.2431705
3115,10997,105 MEETING ST,5/20/22,"$1,101,130.00 ",1101130,549.4660679,2004,2018,"105 MEETING ST Fulton County, GA","105%20MEETING%20ST%20Fulton%20County,%20GA","https://www.google.com/maps/search/105%20MEETING%20ST%20Fulton%20County,%20GA",34.0712586,-84.2854555
157,8039,37 LARUE PL NW,10/31/22,"$285,000.00 ",285000,237.5,1200,1968,"37 LARUE PL NW Fulton County, GA","37%20LARUE%20PL%20NW%20Fulton%20County,%20GA","https://www.google.com/maps/search/37%20LARUE%20PL%20NW%20Fulton%20County,%20GA",33.8170528,-84.4243096
1288,9170,1052 JOHNSONS GRV,2/28/22,"$585,000.00 ",585000,254.3478261,2300,2017,"1052 JOHNSONS GRV Fulton County, GA","1052%20JOHNSONS%20GRV%20Fulton%20County,%20GA","https://www.google.com/maps/search/1052%20JOHNSONS%20GRV%20Fulton%20County,%20GA",33.78472021,-84.44797134
159,8041,602 CYPRESS POINTE ST,10/31/22,"$220,000.00 ",220000,250,880,1985,"602 CYPRESS POINTE ST Fulton County, GA","602%20CYPRESS%20POINTE%20ST%20Fulton%20County,%20GA","https://www.google.com/maps/search/602%20CYPRESS%20POINTE%20ST%20Fulton%20County,%20GA",33.989502,-84.267228
160,8042,330 DRIVER CIRCLE CT,10/31/22,"$565,000.00 ",565000,145.8440888,3874,1992,"330 DRIVER CIRCLE CT Fulton County, GA","330%20DRIVER%20CIRCLE%20CT%20Fulton%20County,%20GA","https://www.google.com/maps/search/330%20DRIVER%20CIRCLE%20CT%20Fulton%20County,%20GA",33.9910741,-84.2628522
161,8043,3451 CARRIAGE CHASE RD,10/31/22,"$249,900.00 ",249900,171.7525773,1455,2002,"3451 CARRIAGE CHASE RD Fulton County, GA","3451%20CARRIAGE%20CHASE%20RD%20Fulton%20County,%20GA","https://www.google.com/maps/search/3451%20CARRIAGE%20CHASE%20RD%20Fulton%20County,%20GA",33.5978978,-84.5027643
162,8044,1065 WINDING BROOK WAY,10/31/22,"$310,000.00 ",310000,112.2781601,2761,2003,"1065 WINDING BROOK WAY Fulton County, GA","1065%20WINDING%20BROOK%20WAY%20Fulton%20County,%20GA","https://www.google.com/maps/search/1065%20WINDING%20BROOK%20WAY%20Fulton%20County,%20GA",33.5761425,-84.5863681
163,8045,4159 BUTTERNUT PL,10/31/22,"$420,900.00 ",420900,152.5,2760,2016,"4159 BUTTERNUT PL Fulton County, GA","4159%20BUTTERNUT%20PL%20Fulton%20County,%20GA","https://www.google.com/maps/search/4159%20BUTTERNUT%20PL%20Fulton%20County,%20GA",33.6435027,-84.6042247
164,8046,11910 CARRIAGE PARK LN,10/31/22,"$523,500.00 ",523500,268.1864754,1952,1993,"11910 CARRIAGE PARK LN Fulton County, GA","11910%20CARRIAGE%20PARK%20LN%20Fulton%20County,%20GA","https://www.google.com/maps/search/11910%20CARRIAGE%20PARK%20LN%20Fulton%20County,%20GA",34.0690417,-84.1798443
165,8047,635 WEEPING BRANCH CT,10/31/22,"$835,000.00 ",835000,305.4133138,2734,1995,"635 WEEPING BRANCH CT Fulton County, GA","635%20WEEPING%20BRANCH%20CT%20Fulton%20County,%20GA","https://www.google.com/maps/search/635%20WEEPING%20BRANCH%20CT%20Fulton%20County,%20GA",34.0422941,-84.1664912
166,8048,1015 HIDDEN POND LN,10/31/22,"$530,000.00 ",530000,228.0550775,2324,1994,"1015 HIDDEN POND LN Fulton County, GA","1015%20HIDDEN%20POND%20LN%20Fulton%20County,%20GA","https://www.google.com/maps/search/1015%20HIDDEN%20POND%20LN%20Fulton%20County,%20GA",34.0531244,-84.3616203
167,8049,24 PINE ST,10/31/22,"$810,000.00 ",810000,258.7032897,3131,2015,"24 PINE ST Fulton County, GA","24%20PINE%20ST%20Fulton%20County,%20GA","https://www.google.com/maps/search/24%20PINE%20ST%20Fulton%20County,%20GA",33.7679315,-84.3877555
168,8050,898 CAPITOL VIEW AVE NW,10/31/22,"$340,000.00 ",340000,249.2668622,1364,2009,"898 CAPITOL VIEW AVE NW Fulton County, GA","898%20CAPITOL%20VIEW%20AVE%20NW%20Fulton%20County,%20GA","https://www.google.com/maps/search/898%20CAPITOL%20VIEW%20AVE%20NW%20Fulton%20County,%20GA",33.7795338,-84.4675729
169,8051,1031 TUCKAWANNA DR SW,10/31/22,"$393,650.00 ",393650,194.4911067,2024,1955,"1031 TUCKAWANNA DR SW Fulton County, GA","1031%20TUCKAWANNA%20DR%20SW%20Fulton%20County,%20GA","https://www.google.com/maps/search/1031%20TUCKAWANNA%20DR%20SW%20Fulton%20County,%20GA",33.7279437,-84.4860398
170,8052,550 CLAUDEL CT,10/31/22,"$361,000.00 ",361000,175.6690998,2055,1996,"550 CLAUDEL CT Fulton County, GA","550%20CLAUDEL%20CT%20Fulton%20County,%20GA","https://www.google.com/maps/search/550%20CLAUDEL%20CT%20Fulton%20County,%20GA",33.7067733,-84.5451725
171,8053,821 NORTHAM LN,10/31/22,"$651,000.00 ",651000,231.5078236,2812,2012,"821 NORTHAM LN Fulton County, GA","821%20NORTHAM%20LN%20Fulton%20County,%20GA","https://www.google.com/maps/search/821%20NORTHAM%20LN%20Fulton%20County,%20GA",33.9093288,-84.3660501
172,8054,860 PEACHTREE ST # 1608,10/31/22,"$310,000.00 ",310000,420.0542005,738,2005,"860 PEACHTREE ST # 1608 Fulton County, GA","860%20PEACHTREE%20ST%20#%201608%20Fulton%20County,%20GA","https://www.google.com/maps/search/860%20PEACHTREE%20ST%20#%201608%20Fulton%20County,%20GA",34.273828,-83.8412077
173,8055,855 PEACHTREE ST NE UNIT 3211,10/31/22,"$641,900.00 ",641900,494.1493457,1299,2008,"855 PEACHTREE ST NE UNIT 3211 Fulton County, GA","855%20PEACHTREE%20ST%20NE%20UNIT%203211%20Fulton%20County,%20GA","https://www.google.com/maps/search/855%20PEACHTREE%20ST%20NE%20UNIT%203211%20Fulton%20County,%20GA",33.7777998,-84.383904
174,8056,800 PEACHTREE ST # 8531,10/31/22,"$405,000.00 ",405000,289.4924946,1399,1927,"800 PEACHTREE ST # 8531 Fulton County, GA","800%20PEACHTREE%20ST%20#%208531%20Fulton%20County,%20GA","https://www.google.com/maps/search/800%20PEACHTREE%20ST%20#%208531%20Fulton%20County,%20GA",33.7762272,-84.3844471
175,8057,768 GRANT TER SE,10/31/22,"$260,000.00 ",260000,270.8333333,960,1991,"768 GRANT TER SE Fulton County, GA","768%20GRANT%20TER%20SE%20Fulton%20County,%20GA","https://www.google.com/maps/search/768%20GRANT%20TER%20SE%20Fulton%20County,%20GA",33.7335116,-84.3797066
176,8058,872 BERYL ST SW,10/31/22,"$369,476.00 ",369476,338.3479853,1092,1920,"872 BERYL ST SW Fulton County, GA","872%20BERYL%20ST%20SW%20Fulton%20County,%20GA","https://www.google.com/maps/search/872%20BERYL%20ST%20SW%20Fulton%20County,%20GA",33.7312475,-84.4069457
2097,9979,1059 SHADOW GLEN DR,2/10/22,"$301,503.00 ",301503,113.3469925,2660,2021,"1059 SHADOW GLEN DR Fulton County, GA","1059%20SHADOW%20GLEN%20DR%20Fulton%20County,%20GA","https://www.google.com/maps/search/1059%20SHADOW%20GLEN%20DR%20Fulton%20County,%20GA",33.56537999,-84.61901406
178,8060,132 BELMONTE DR SW,10/31/22,"$191,900.00 ",191900,137.4641834,1396,1986,"132 BELMONTE DR SW Fulton County, GA","132%20BELMONTE%20DR%20SW%20Fulton%20County,%20GA","https://www.google.com/maps/search/132%20BELMONTE%20DR%20SW%20Fulton%20County,%20GA",33.725247,-84.4442681
179,8061,1581 BOULEVARD LORRAINE SW,10/31/22,"$315,000.00 ",315000,163.4665283,1927,1958,"1581 BOULEVARD LORRAINE SW Fulton County, GA","1581%20BOULEVARD%20LORRAINE%20SW%20Fulton%20County,%20GA","https://www.google.com/maps/search/1581%20BOULEVARD%20LORRAINE%20SW%20Fulton%20County,%20GA",33.7132471,-84.4606884
180,8062,4 WEST WESLEY RIDGE,10/31/22,"$1,474,000.00 ",1474000,536.3901019,2748,1981,"4 WEST WESLEY RIDGE Fulton County, GA","4%20WEST%20WESLEY%20RIDGE%20Fulton%20County,%20GA","https://www.google.com/maps/search/4%20WEST%20WESLEY%20RIDGE%20Fulton%20County,%20GA",33.845043,-84.4562972
181,8063,12460 STEVENS CREEK DR,10/31/22,"$781,002.00 ",781002,313.6554217,2490,1997,"12460 STEVENS CREEK DR Fulton County, GA","12460%20STEVENS%20CREEK%20DR%20Fulton%20County,%20GA","https://www.google.com/maps/search/12460%20STEVENS%20CREEK%20DR%20Fulton%20County,%20GA",34.0819491,-84.2010132
182,8064,750 SOUTHFIELD LN,10/31/22,"$785,000.00 ",785000,294.6696697,2664,2001,"750 SOUTHFIELD LN Fulton County, GA","750%20SOUTHFIELD%20LN%20Fulton%20County,%20GA","https://www.google.com/maps/search/750%20SOUTHFIELD%20LN%20Fulton%20County,%20GA",34.0953645,-84.2922334
183,8065,14321 CLUB CIR,10/31/22,"$800,000.00 ",800000,259.0673575,3088,1998,"14321 CLUB CIR Fulton County, GA","14321%20CLUB%20CIR%20Fulton%20County,%20GA","https://www.google.com/maps/search/14321%20CLUB%20CIR%20Fulton%20County,%20GA",34.1358837,-84.2671589
184,8066,14179 YACHT TER,10/31/22,"$338,000.00 ",338000,226.541555,1492,2004,"14179 YACHT TER Fulton County, GA","14179%20YACHT%20TER%20Fulton%20County,%20GA","https://www.google.com/maps/search/14179%20YACHT%20TER%20Fulton%20County,%20GA",34.1258135,-84.2622525
185,8067,103 LEXINGTON PL,10/31/22,"$345,000.00 ",345000,154.0178571,2240,1974,"103 LEXINGTON PL Fulton County, GA","103%20LEXINGTON%20PL%20Fulton%20County,%20GA","https://www.google.com/maps/search/103%20LEXINGTON%20PL%20Fulton%20County,%20GA",34.0045756,-84.3379154
186,8068,135 NORTH RIVER DR UNIT D,10/31/22,"$241,525.00 ",241525,182.1455505,1326,1970,"135 NORTH RIVER DR UNIT D Fulton County, GA","135%20NORTH%20RIVER%20DR%20UNIT%20D%20Fulton%20County,%20GA","https://www.google.com/maps/search/135%20NORTH%20RIVER%20DR%20UNIT%20D%20Fulton%20County,%20GA",33.995451,-84.346984
187,8069,6040 PARK CLOSE,10/31/22,"$280,000.00 ",280000,226.5372168,1236,2005,"6040 PARK CLOSE Fulton County, GA","6040%20PARK%20CLOSE%20Fulton%20County,%20GA","https://www.google.com/maps/search/6040%20PARK%20CLOSE%20Fulton%20County,%20GA",33.5924756,-84.6406573
188,8070,9543 LAKEVIEW RD,10/31/22,"$277,000.00 ",277000,194.3859649,1425,2004,"9543 LAKEVIEW RD Fulton County, GA","9543%20LAKEVIEW%20RD%20Fulton%20County,%20GA","https://www.google.com/maps/search/9543%20LAKEVIEW%20RD%20Fulton%20County,%20GA",33.6016308,-84.5705472
189,8071,810 BENTLEY DR,10/31/22,"$358,770.00 ",358770,170.3561254,2106,2020,"810 BENTLEY DR Fulton County, GA","810%20BENTLEY%20DR%20Fulton%20County,%20GA","https://www.google.com/maps/search/810%20BENTLEY%20DR%20Fulton%20County,%20GA",33.6161979,-84.6126909
190,8072,1035 VINTAGE CLUB DR,10/31/22,"$1,270,000.00 ",1270000,295.0743494,4304,1989,"1035 VINTAGE CLUB DR Fulton County, GA","1035%20VINTAGE%20CLUB%20DR%20Fulton%20County,%20GA","https://www.google.com/maps/search/1035%20VINTAGE%20CLUB%20DR%20Fulton%20County,%20GA",34.0257074,-84.1766068
191,8073,3310 OVERLAND DR,10/31/22,"$560,000.00 ",560000,282.2580645,1984,2003,"3310 OVERLAND DR Fulton County, GA","3310%20OVERLAND%20DR%20Fulton%20County,%20GA","https://www.google.com/maps/search/3310%20OVERLAND%20DR%20Fulton%20County,%20GA",34.0099159,-84.3580127
192,8074,2499 PEACHTREE RD # 207,10/31/22,"$345,000.00 ",345000,246.6047177,1399,1984,"2499 PEACHTREE RD # 207 Fulton County, GA","2499%20PEACHTREE%20RD%20#%20207%20Fulton%20County,%20GA","https://www.google.com/maps/search/2499%20PEACHTREE%20RD%20#%20207%20Fulton%20County,%20GA",34.2149314,-84.1049611
193,8075,2422 MAXWELL DR SW,10/31/22,"$420,000.00 ",420000,336.5384615,1248,1960,"2422 MAXWELL DR SW Fulton County, GA","2422%20MAXWELL%20DR%20SW%20Fulton%20County,%20GA","https://www.google.com/maps/search/2422%20MAXWELL%20DR%20SW%20Fulton%20County,%20GA",33.6917263,-84.4827404
194,8076,23214 PLANTATION DR NE,10/31/22,"$245,000.00 ",245000,200.1633987,1224,1980,"23214 PLANTATION DR NE Fulton County, GA","23214%20PLANTATION%20DR%20NE%20Fulton%20County,%20GA","https://www.google.com/maps/search/23214%20PLANTATION%20DR%20NE%20Fulton%20County,%20GA",33.8369018,-84.3567892
195,8077,6821 PRELUDE DR,10/31/22,"$859,900.00 ",859900,261.526764,3288,2020,"6821 PRELUDE DR Fulton County, GA","6821%20PRELUDE%20DR%20Fulton%20County,%20GA","https://www.google.com/maps/search/6821%20PRELUDE%20DR%20Fulton%20County,%20GA",33.939598,-84.3639358
196,8078,329 THE CHACE,10/31/22,"$400,000.00 ",400000,221.72949,1804,1980,"329 THE CHACE Fulton County, GA","329%20THE%20CHACE%20Fulton%20County,%20GA","https://www.google.com/maps/search/329%20THE%20CHACE%20Fulton%20County,%20GA",33.9249525,-84.3611775
197,8079,97 CALDER DR,10/31/22,"$690,000.00 ",690000,227.2727273,3036,2017,"97 CALDER DR Fulton County, GA","97%20CALDER%20DR%20Fulton%20County,%20GA","https://www.google.com/maps/search/97%20CALDER%20DR%20Fulton%20County,%20GA",34.0530609,-84.3122291
198,8080,550 RIDGEMONT DR,10/31/22,"$437,000.00 ",437000,241.4364641,1810,1981,"550 RIDGEMONT DR Fulton County, GA","550%20RIDGEMONT%20DR%20Fulton%20County,%20GA","https://www.google.com/maps/search/550%20RIDGEMONT%20DR%20Fulton%20County,%20GA",34.018005,-84.2981367
199,8081,10070 KINROSS RD,10/31/22,"$560,000.00 ",560000,186.7289096,2999,1981,"10070 KINROSS RD Fulton County, GA","10070%20KINROSS%20RD%20Fulton%20County,%20GA","https://www.google.com/maps/search/10070%20KINROSS%20RD%20Fulton%20County,%20GA",34.0250221,-84.28464
200,8082,3377 SABLE CHASE LN,10/31/22,"$256,000.00 ",256000,176.5517241,1450,2004,"3377 SABLE CHASE LN Fulton County, GA","3377%20SABLE%20CHASE%20LN%20Fulton%20County,%20GA","https://www.google.com/maps/search/3377%20SABLE%20CHASE%20LN%20Fulton%20County,%20GA",33.599092,-84.500786
201,8083,142 SAVANNAH ST SE,10/31/22,"$540,000.00 ",540000,513.3079848,1052,1920,"142 SAVANNAH ST SE Fulton County, GA","142%20SAVANNAH%20ST%20SE%20Fulton%20County,%20GA","https://www.google.com/maps/search/142%20SAVANNAH%20ST%20SE%20Fulton%20County,%20GA",33.7507359,-84.3672354
202,8084,2061 OLD GEORGIAN TERRACE,10/31/22,"$645,000.00 ",645000,205.4140127,3140,2006,"2061 OLD GEORGIAN TERRACE Fulton County, GA","2061%20OLD%20GEORGIAN%20TERRACE%20Fulton%20County,%20GA","https://www.google.com/maps/search/2061%20OLD%20GEORGIAN%20TERRACE%20Fulton%20County,%20GA",33.8112456,-84.4802811
203,8085,12387 DOUGLAS RD,10/31/22,"$300,000.00 ",300000,227.2727273,1320,1960,"12387 DOUGLAS RD Fulton County, GA","12387%20DOUGLAS%20RD%20Fulton%20County,%20GA","https://www.google.com/maps/search/12387%20DOUGLAS%20RD%20Fulton%20County,%20GA",34.0815574,-84.2052638
204,8086,14225 BIRMINGHAM HWY,10/31/22,"$3,300,000.00 ",3300000,504.2787286,6544,2015,"14225 BIRMINGHAM HWY Fulton County, GA","14225%20BIRMINGHAM%20HWY%20Fulton%20County,%20GA","https://www.google.com/maps/search/14225%20BIRMINGHAM%20HWY%20Fulton%20County,%20GA",34.1277339,-84.3433183
205,8087,310 EDDYSTONE POINT,10/31/22,"$1,065,000.00 ",1065000,248.8899276,4279,1998,"310 EDDYSTONE POINT Fulton County, GA","310%20EDDYSTONE%20POINT%20Fulton%20County,%20GA","https://www.google.com/maps/search/310%20EDDYSTONE%20POINT%20Fulton%20County,%20GA",34.0516924,-84.2533554
206,8088,4005 FALLS RIDGE,10/31/22,"$1,200,000.00 ",1200000,363.1961259,3304,1994,"4005 FALLS RIDGE Fulton County, GA","4005%20FALLS%20RIDGE%20Fulton%20County,%20GA","https://www.google.com/maps/search/4005%20FALLS%20RIDGE%20Fulton%20County,%20GA",34.0257008,-84.2414831
207,8089,1655 SILVERLEAF WAY,10/31/22,"$879,000.00 ",879000,279.9363057,3140,1994,"1655 SILVERLEAF WAY Fulton County, GA","1655%20SILVERLEAF%20WAY%20Fulton%20County,%20GA","https://www.google.com/maps/search/1655%20SILVERLEAF%20WAY%20Fulton%20County,%20GA",34.0673178,-84.2291351
208,8090,5310 JOHNS VIEW ST,10/31/22,"$585,900.00 ",585900,269.2555147,2176,1989,"5310 JOHNS VIEW ST Fulton County, GA","5310%20JOHNS%20VIEW%20ST%20Fulton%20County,%20GA","https://www.google.com/maps/search/5310%20JOHNS%20VIEW%20ST%20Fulton%20County,%20GA",34.0648744,-84.2011367
209,8091,10530 BRANHAM FIELDS RD,10/31/22,"$710,000.00 ",710000,196.1325967,3620,1989,"10530 BRANHAM FIELDS RD Fulton County, GA","10530%20BRANHAM%20FIELDS%20RD%20Fulton%20County,%20GA","https://www.google.com/maps/search/10530%20BRANHAM%20FIELDS%20RD%20Fulton%20County,%20GA",34.038311,-84.1918491
210,8092,1420 WOODCREST DR,10/31/22,"$500,000.00 ",500000,179.8561151,2780,1976,"1420 WOODCREST DR Fulton County, GA","1420%20WOODCREST%20DR%20Fulton%20County,%20GA","https://www.google.com/maps/search/1420%20WOODCREST%20DR%20Fulton%20County,%20GA",34.0183957,-84.3915122
211,8093,1101 JUNIPER ST NE 1210,10/31/22,"$320,000.00 ",320000,368.6635945,868,1999,"1101 JUNIPER ST NE 1210 Fulton County, GA","1101%20JUNIPER%20ST%20NE%201210%20Fulton%20County,%20GA","https://www.google.com/maps/search/1101%20JUNIPER%20ST%20NE%201210%20Fulton%20County,%20GA",33.7847688,-84.3818565
212,8094,20 PINE CANYON DR SW 26,10/31/22,"$255,000.00 ",255000,161.3924051,1580,2003,"20 PINE CANYON DR SW 26 Fulton County, GA","20%20PINE%20CANYON%20DR%20SW%2026%20Fulton%20County,%20GA","https://www.google.com/maps/search/20%20PINE%20CANYON%20DR%20SW%2026%20Fulton%20County,%20GA",33.6746828,-84.4871945
213,8095,3871 LAKE MANOR WAY,10/31/22,"$431,000.00 ",431000,133.4365325,3230,2016,"3871 LAKE MANOR WAY Fulton County, GA","3871%20LAKE%20MANOR%20WAY%20Fulton%20County,%20GA","https://www.google.com/maps/search/3871%20LAKE%20MANOR%20WAY%20Fulton%20County,%20GA",33.6505903,-84.5274411
214,8096,2985 PEBBLE CREEK LN,10/31/22,"$271,000.00 ",271000,134.4246032,2016,2002,"2985 PEBBLE CREEK LN Fulton County, GA","2985%20PEBBLE%20CREEK%20LN%20Fulton%20County,%20GA","https://www.google.com/maps/search/2985%20PEBBLE%20CREEK%20LN%20Fulton%20County,%20GA",33.6732266,-84.6295378
215,8097,13 DUNWOODY SPRINGS DR,10/31/22,"$325,000.00 ",325000,203.125,1600,1985,"13 DUNWOODY SPRINGS DR Fulton County, GA","13%20DUNWOODY%20SPRINGS%20DR%20Fulton%20County,%20GA","https://www.google.com/maps/search/13%20DUNWOODY%20SPRINGS%20DR%20Fulton%20County,%20GA",33.922134,-84.356117
216,8098,6802 GLENRIDGE DR J,10/31/22,"$275,000.00 ",275000,208.3333333,1320,1981,"6802 GLENRIDGE DR J Fulton County, GA","6802%20GLENRIDGE%20DR%20J%20Fulton%20County,%20GA","https://www.google.com/maps/search/6802%20GLENRIDGE%20DR%20J%20Fulton%20County,%20GA",33.9416535,-84.3669897
217,8099,6568 ARIA VILLAGE DR,10/31/22,"$965,800.00 ",965800,324.5295699,2976,2018,"6568 ARIA VILLAGE DR Fulton County, GA","6568%20ARIA%20VILLAGE%20DR%20Fulton%20County,%20GA","https://www.google.com/maps/search/6568%20ARIA%20VILLAGE%20DR%20Fulton%20County,%20GA",33.933691,-84.365789
218,8100,6812 CADENCE BLVD,10/31/22,"$375,000.00 ",375000,362.3188406,1035,2018,"6812 CADENCE BLVD Fulton County, GA","6812%20CADENCE%20BLVD%20Fulton%20County,%20GA","https://www.google.com/maps/search/6812%20CADENCE%20BLVD%20Fulton%20County,%20GA",33.9388187,-84.3637168
219,8101,601 BROADVIEW TER,10/31/22,"$664,507.00 ",664507,293.380574,2265,2021,"601 BROADVIEW TER Fulton County, GA","601%20BROADVIEW%20TER%20Fulton%20County,%20GA","https://www.google.com/maps/search/601%20BROADVIEW%20TER%20Fulton%20County,%20GA",33.8215575,-84.3637428
220,8102,670 LAKE FOREST CT,10/31/22,"$475,000.00 ",475000,239.4153226,1984,1981,"670 LAKE FOREST CT Fulton County, GA","670%20LAKE%20FOREST%20CT%20Fulton%20County,%20GA","https://www.google.com/maps/search/670%20LAKE%20FOREST%20CT%20Fulton%20County,%20GA",34.024578,-84.2965612
221,8103,217 THOMPSON ST,10/31/22,"$1,250,000.00 ",1250000,646.9979296,1932,2019,"217 THOMPSON ST Fulton County, GA","217%20THOMPSON%20ST%20Fulton%20County,%20GA","https://www.google.com/maps/search/217%20THOMPSON%20ST%20Fulton%20County,%20GA",34.071364,-84.2859138
222,8104,1110 ATHERTON PARK,10/31/22,"$835,000.00 ",835000,190.9007773,4374,2016,"1110 ATHERTON PARK Fulton County, GA","1110%20ATHERTON%20PARK%20Fulton%20County,%20GA","https://www.google.com/maps/search/1110%20ATHERTON%20PARK%20Fulton%20County,%20GA",34.022207,-84.2900969
223,8105,318 HAWKSTONE WAY,10/31/22,"$216,500.00 ",216500,227.8947368,950,1985,"318 HAWKSTONE WAY Fulton County, GA","318%20HAWKSTONE%20WAY%20Fulton%20County,%20GA","https://www.google.com/maps/search/318%20HAWKSTONE%20WAY%20Fulton%20County,%20GA",33.9892506,-84.2664225
394,8276,1060 JOHNSONS GRV,10/26/22,"$585,000.00 ",585000,254.3478261,2300,2017,"1060 JOHNSONS GRV Fulton County, GA","1060%20JOHNSONS%20GRV%20Fulton%20County,%20GA","https://www.google.com/maps/search/1060%20JOHNSONS%20GRV%20Fulton%20County,%20GA",33.78490714,-84.44769529
225,8107,6438 GREY FOX WAY,10/31/22,"$280,000.00 ",280000,132.9534663,2106,2020,"6438 GREY FOX WAY Fulton County, GA","6438%20GREY%20FOX%20WAY%20Fulton%20County,%20GA","https://www.google.com/maps/search/6438%20GREY%20FOX%20WAY%20Fulton%20County,%20GA",33.5805683,-84.4639649
226,8108,2288 CREEL RD,10/31/22,"$312,000.00 ",312000,122.8346457,2540,2007,"2288 CREEL RD Fulton County, GA","2288%20CREEL%20RD%20Fulton%20County,%20GA","https://www.google.com/maps/search/2288%20CREEL%20RD%20Fulton%20County,%20GA",33.5737284,-84.4633361
227,8109,7626 BOWHEAD CT,10/31/22,"$390,000.00 ",390000,98.48484848,3960,2014,"7626 BOWHEAD CT Fulton County, GA","7626%20BOWHEAD%20CT%20Fulton%20County,%20GA","https://www.google.com/maps/search/7626%20BOWHEAD%20CT%20Fulton%20County,%20GA",33.548572,-84.5045687
228,8110,1137 SAINT CHARLES PL NE,10/31/22,"$2,165,000.00 ",2165000,646.6547192,3348,1912,"1137 SAINT CHARLES PL NE Fulton County, GA","1137%20SAINT%20CHARLES%20PL%20NE%20Fulton%20County,%20GA","https://www.google.com/maps/search/1137%20SAINT%20CHARLES%20PL%20NE%20Fulton%20County,%20GA",33.7751595,-84.3501359
229,8111,170 BOULEVARD SE LOT 007E,10/31/22,"$510,000.00 ",510000,308.1570997,1655,2007,"170 BOULEVARD SE LOT 007E Fulton County, GA","170%20BOULEVARD%20SE%20LOT%20007E%20Fulton%20County,%20GA","https://www.google.com/maps/search/170%20BOULEVARD%20SE%20LOT%20007E%20Fulton%20County,%20GA",33.7497092,-84.3688592
230,8112,511 MC GILL PARK AVE NE,10/31/22,"$241,000.00 ",241000,296.0687961,814,1992,"511 MC GILL PARK AVE NE Fulton County, GA","511%20MC%20GILL%20PARK%20AVE%20NE%20Fulton%20County,%20GA","https://www.google.com/maps/search/511%20MC%20GILL%20PARK%20AVE%20NE%20Fulton%20County,%20GA",33.7622651,-84.3773741
231,8113,860 PEACHTREE ST 713,10/31/22,"$435,000.00 ",435000,410.3773585,1060,2005,"860 PEACHTREE ST 713 Fulton County, GA","860%20PEACHTREE%20ST%20713%20Fulton%20County,%20GA","https://www.google.com/maps/search/860%20PEACHTREE%20ST%20713%20Fulton%20County,%20GA",33.7784395,-84.3854769
232,8114,385 ENOTA PL SW,10/31/22,"$290,000.00 ",290000,322.2222222,900,1950,"385 ENOTA PL SW Fulton County, GA","385%20ENOTA%20PL%20SW%20Fulton%20County,%20GA","https://www.google.com/maps/search/385%20ENOTA%20PL%20SW%20Fulton%20County,%20GA",33.7446625,-84.4341905
233,8115,1653 TEMPLE AVE,10/31/22,"$240,000.00 ",240000,172.4137931,1392,1956,"1653 TEMPLE AVE Fulton County, GA","1653%20TEMPLE%20AVE%20Fulton%20County,%20GA","https://www.google.com/maps/search/1653%20TEMPLE%20AVE%20Fulton%20County,%20GA",33.6560027,-84.4430711
234,8116,2029 DETROIT AVE NW,10/31/22,"$285,000.00 ",285000,274.831244,1037,1940,"2029 DETROIT AVE NW Fulton County, GA","2029%20DETROIT%20AVE%20NW%20Fulton%20County,%20GA","https://www.google.com/maps/search/2029%20DETROIT%20AVE%20NW%20Fulton%20County,%20GA",33.7672615,-84.4535739
235,8117,594 IRONSTONE DR,10/31/22,"$359,900.00 ",359900,130.6826434,2754,2007,"594 IRONSTONE DR Fulton County, GA","594%20IRONSTONE%20DR%20Fulton%20County,%20GA","https://www.google.com/maps/search/594%20IRONSTONE%20DR%20Fulton%20County,%20GA",33.6224169,-84.6516111
236,8118,7162 FLAGSTONE PL,10/31/22,"$257,850.00 ",257850,128.0287984,2014,2004,"7162 FLAGSTONE PL Fulton County, GA","7162%20FLAGSTONE%20PL%20Fulton%20County,%20GA","https://www.google.com/maps/search/7162%20FLAGSTONE%20PL%20Fulton%20County,%20GA",33.560771,-84.523455
237,8119,451 HOLLY ST NW,10/31/22,"$225,000.00 ",225000,164.1137856,1371,1935,"451 HOLLY ST NW Fulton County, GA","451%20HOLLY%20ST%20NW%20Fulton%20County,%20GA","https://www.google.com/maps/search/451%20HOLLY%20ST%20NW%20Fulton%20County,%20GA",33.7675221,-84.4374312
238,8120,266 ELEVENTH ST NE # 309,10/28/22,"$395,000.00 ",395000,521.1081794,758,1911,"266 ELEVENTH ST NE # 309 Fulton County, GA","266%20ELEVENTH%20ST%20NE%20#%20309%20Fulton%20County,%20GA","https://www.google.com/maps/search/266%20ELEVENTH%20ST%20NE%20#%20309%20Fulton%20County,%20GA",33.7827677,-84.3785419
239,8121,222 TWELFTH ST NE UNIT 806,10/28/22,"$1,085,000.00 ",1085000,596.1538462,1820,2008,"222 TWELFTH ST NE UNIT 806 Fulton County, GA","222%20TWELFTH%20ST%20NE%20UNIT%20806%20Fulton%20County,%20GA","https://www.google.com/maps/search/222%20TWELFTH%20ST%20NE%20UNIT%20806%20Fulton%20County,%20GA",33.7846303,-84.3798237
240,8122,1497 ENGLISH ST,10/28/22,"$990,000.00 ",990000,425.257732,2328,2021,"1497 ENGLISH ST Fulton County, GA","1497%20ENGLISH%20ST%20Fulton%20County,%20GA","https://www.google.com/maps/search/1497%20ENGLISH%20ST%20Fulton%20County,%20GA",33.7949333,-84.4229159
241,8123,1081 LIBERTY PKWY NW,10/28/22,"$343,000.00 ",343000,258.6726998,1326,2004,"1081 LIBERTY PKWY NW Fulton County, GA","1081%20LIBERTY%20PKWY%20NW%20Fulton%20County,%20GA","https://www.google.com/maps/search/1081%20LIBERTY%20PKWY%20NW%20Fulton%20County,%20GA",33.817797,-84.444072
242,8124,6400 KIMBERLY MILL RD,10/28/22,"$242,000.00 ",242000,269.4877506,898,1972,"6400 KIMBERLY MILL RD Fulton County, GA","6400%20KIMBERLY%20MILL%20RD%20Fulton%20County,%20GA","https://www.google.com/maps/search/6400%20KIMBERLY%20MILL%20RD%20Fulton%20County,%20GA",33.5804997,-84.48688
243,8125,6811 MANCHA ST,10/28/22,"$245,000.00 ",245000,121.7693837,2012,2007,"6811 MANCHA ST Fulton County, GA","6811%20MANCHA%20ST%20Fulton%20County,%20GA","https://www.google.com/maps/search/6811%20MANCHA%20ST%20Fulton%20County,%20GA",33.5722898,-84.4669931
244,8126,170 BOULEVARD SE # 111 H,10/28/22,"$370,000.00 ",370000,338.5178408,1093,2006,"170 BOULEVARD SE # 111 H Fulton County, GA","170%20BOULEVARD%20SE%20#%20111%20H%20Fulton%20County,%20GA","https://www.google.com/maps/search/170%20BOULEVARD%20SE%20#%20111%20H%20Fulton%20County,%20GA",33.7496927,-84.3689078
245,8127,5054 RAPAHOE TRL,10/28/22,"$373,000.00 ",373000,187.4371859,1990,2019,"5054 RAPAHOE TRL Fulton County, GA","5054%20RAPAHOE%20TRL%20Fulton%20County,%20GA","https://www.google.com/maps/search/5054%20RAPAHOE%20TRL%20Fulton%20County,%20GA",33.6202479,-84.5508226
246,8128,412 INKBERRY DR,10/28/22,"$209,900.00 ",209900,152.9883382,1372,2005,"412 INKBERRY DR Fulton County, GA","412%20INKBERRY%20DR%20Fulton%20County,%20GA","https://www.google.com/maps/search/412%20INKBERRY%20DR%20Fulton%20County,%20GA",33.6267153,-84.5483537
247,8129,10882 BOSSIER DR,10/28/22,"$665,000.00 ",665000,204.8675293,3246,2006,"10882 BOSSIER DR Fulton County, GA","10882%20BOSSIER%20DR%20Fulton%20County,%20GA","https://www.google.com/maps/search/10882%20BOSSIER%20DR%20Fulton%20County,%20GA",34.0457109,-84.2194734
248,8130,3173 SAINT IVES CTRY CLUB PKWY,10/28/22,"$1,255,000.00 ",1255000,272.2342733,4610,1991,"3173 SAINT IVES CTRY CLUB PKWY Fulton County, GA","3173%20SAINT%20IVES%20CTRY%20CLUB%20PKWY%20Fulton%20County,%20GA","https://www.google.com/maps/search/3173%20SAINT%20IVES%20CTRY%20CLUB%20PKWY%20Fulton%20County,%20GA",34.0293119,-84.1734961
249,8131,10215 GRANDVIEW SQ,10/28/22,"$1,050,000.00 ",1050000,224.6469833,4674,2019,"10215 GRANDVIEW SQ Fulton County, GA","10215%20GRANDVIEW%20SQ%20Fulton%20County,%20GA","https://www.google.com/maps/search/10215%20GRANDVIEW%20SQ%20Fulton%20County,%20GA",34.0484466,-84.1622673
250,8132,120 WHISPERING WOODS CT,10/28/22,"$461,595.00 ",461595,172.8820225,2670,2021,"120 WHISPERING WOODS CT Fulton County, GA","120%20WHISPERING%20WOODS%20CT%20Fulton%20County,%20GA","https://www.google.com/maps/search/120%20WHISPERING%20WOODS%20CT%20Fulton%20County,%20GA",34.0556864,-84.1329313
251,8133,11595 NORTHGATE TRL,10/28/22,"$635,000.00 ",635000,367.0520231,1730,1980,"11595 NORTHGATE TRL Fulton County, GA","11595%20NORTHGATE%20TRL%20Fulton%20County,%20GA","https://www.google.com/maps/search/11595%20NORTHGATE%20TRL%20Fulton%20County,%20GA",34.0631555,-84.3662395
252,8134,3073 GREEN VALLEY DR,10/28/22,"$350,000.00 ",350000,162.9422719,2148,1967,"3073 GREEN VALLEY DR Fulton County, GA","3073%20GREEN%20VALLEY%20DR%20Fulton%20County,%20GA","https://www.google.com/maps/search/3073%20GREEN%20VALLEY%20DR%20Fulton%20County,%20GA",33.6710617,-84.4890932
253,8135,795 HAMMOND DR # #1602,10/28/22,"$188,500.00 ",188500,269.6709585,699,1990,"795 HAMMOND DR # #1602 Fulton County, GA","795%20HAMMOND%20DR%20#%20#1602%20Fulton%20County,%20GA","https://www.google.com/maps/search/795%20HAMMOND%20DR%20#%20#1602%20Fulton%20County,%20GA",33.9174763,-84.3595063
254,8136,902 MONROE CIR NE,10/28/22,"$872,000.00 ",872000,466.3101604,1870,1920,"902 MONROE CIR NE Fulton County, GA","902%20MONROE%20CIR%20NE%20Fulton%20County,%20GA","https://www.google.com/maps/search/902%20MONROE%20CIR%20NE%20Fulton%20County,%20GA",33.7787799,-84.3687811
255,8137,288 LOGAN ST SE,10/28/22,"$520,000.00 ",520000,299.7118156,1735,1920,"288 LOGAN ST SE Fulton County, GA","288%20LOGAN%20ST%20SE%20Fulton%20County,%20GA","https://www.google.com/maps/search/288%20LOGAN%20ST%20SE%20Fulton%20County,%20GA",33.7447096,-84.3782166
256,8138,2802 GLENLOCKE WAY NW,10/28/22,"$415,000.00 ",415000,167.6767677,2475,2004,"2802 GLENLOCKE WAY NW Fulton County, GA","2802%20GLENLOCKE%20WAY%20NW%20Fulton%20County,%20GA","https://www.google.com/maps/search/2802%20GLENLOCKE%20WAY%20NW%20Fulton%20County,%20GA",33.7972546,-84.4825354
257,8139,340 SWINGLINE LN,10/28/22,"$480,000.00 ",480000,239.0438247,2008,2014,"340 SWINGLINE LN Fulton County, GA","340%20SWINGLINE%20LN%20Fulton%20County,%20GA","https://www.google.com/maps/search/340%20SWINGLINE%20LN%20Fulton%20County,%20GA",34.106504,-84.270868
258,8140,13538 WEYCROFT CIR,10/28/22,"$440,000.00 ",440000,244.5803224,1799,1999,"13538 WEYCROFT CIR Fulton County, GA","13538%20WEYCROFT%20CIR%20Fulton%20County,%20GA","https://www.google.com/maps/search/13538%20WEYCROFT%20CIR%20Fulton%20County,%20GA",34.1133087,-84.2662127
259,8141,5430 BETHLEHEM RD,10/28/22,"$289,000.00 ",289000,142.364532,2030,1970,"5430 BETHLEHEM RD Fulton County, GA","5430%20BETHLEHEM%20RD%20Fulton%20County,%20GA","https://www.google.com/maps/search/5430%20BETHLEHEM%20RD%20Fulton%20County,%20GA",33.6096947,-84.6487094
260,8142,360 PARKWAY RD,10/7/22,"$150,000.00 ",150000,89.39213349,1678,2004,"360 PARKWAY RD Fulton County, GA","360%20PARKWAY%20RD%20Fulton%20County,%20GA","https://www.google.com/maps/search/360%20PARKWAY%20RD%20Fulton%20County,%20GA",33.5688544,-84.5637907
261,8143,4175 MONAGHAN WAY,10/28/22,"$285,500.00 ",285500,87.01615361,3281,2008,"4175 MONAGHAN WAY Fulton County, GA","4175%20MONAGHAN%20WAY%20Fulton%20County,%20GA","https://www.google.com/maps/search/4175%20MONAGHAN%20WAY%20Fulton%20County,%20GA",33.5996134,-84.5246969
262,8144,340 HIGH BRIDGE CHASE,10/28/22,"$1,250,000.00 ",1250000,474.9240122,2632,1987,"340 HIGH BRIDGE CHASE Fulton County, GA","340%20HIGH%20BRIDGE%20CHASE%20Fulton%20County,%20GA","https://www.google.com/maps/search/340%20HIGH%20BRIDGE%20CHASE%20Fulton%20County,%20GA",34.0072957,-84.2295705
263,8145,320 STEDFORD LN,10/28/22,"$525,000.00 ",525000,209.6645367,2504,1996,"320 STEDFORD LN Fulton County, GA","320%20STEDFORD%20LN%20Fulton%20County,%20GA","https://www.google.com/maps/search/320%20STEDFORD%20LN%20Fulton%20County,%20GA",34.0468234,-84.1699228
264,8146,1025 OAK LN,10/28/22,"$1,700,000.00 ",1700000,428.8597376,3964,2016,"1025 OAK LN Fulton County, GA","1025%20OAK%20LN%20Fulton%20County,%20GA","https://www.google.com/maps/search/1025%20OAK%20LN%20Fulton%20County,%20GA",34.0428403,-84.374062
265,8147,14030 CRABAPPLE LAKE DR,10/28/22,"$575,000.00 ",575000,258.6594692,2223,1995,"14030 CRABAPPLE LAKE DR Fulton County, GA","14030%20CRABAPPLE%20LAKE%20DR%20Fulton%20County,%20GA","https://www.google.com/maps/search/14030%20CRABAPPLE%20LAKE%20DR%20Fulton%20County,%20GA",34.0718467,-84.3556507
266,8148,275 ROSWELL COMMONS CIR,10/28/22,"$269,500.00 ",269500,224.5833333,1200,1984,"275 ROSWELL COMMONS CIR Fulton County, GA","275%20ROSWELL%20COMMONS%20CIR%20Fulton%20County,%20GA","https://www.google.com/maps/search/275%20ROSWELL%20COMMONS%20CIR%20Fulton%20County,%20GA",34.0414997,-84.3375859
267,8149,13 JAMES RIVER PL NE,10/28/22,"$345,000.00 ",345000,319.4444444,1080,1975,"13 JAMES RIVER PL NE Fulton County, GA","13%20JAMES%20RIVER%20PL%20NE%20Fulton%20County,%20GA","https://www.google.com/maps/search/13%20JAMES%20RIVER%20PL%20NE%20Fulton%20County,%20GA",33.8704603,-84.3831047
268,8150,3655 HABERSHAM RD NE #345,10/28/22,"$147,000.00 ",147000,206.171108,713,1989,"3655 HABERSHAM RD NE #345 Fulton County, GA","3655%20HABERSHAM%20RD%20NE%20#345%20Fulton%20County,%20GA","https://www.google.com/maps/search/3655%20HABERSHAM%20RD%20NE%20#345%20Fulton%20County,%20GA",33.8537724,-84.3802409
269,8151,2151 FAIRHAVEN CIR NE,10/28/22,"$845,000.00 ",845000,648.006135,1304,1927,"2151 FAIRHAVEN CIR NE Fulton County, GA","2151%20FAIRHAVEN%20CIR%20NE%20Fulton%20County,%20GA","https://www.google.com/maps/search/2151%20FAIRHAVEN%20CIR%20NE%20Fulton%20County,%20GA",33.813829,-84.3851489
270,8152,5570 LAKE ISLAND DR NW,10/28/22,"$1,625,000.00 ",1625000,519.1693291,3130,1976,"5570 LAKE ISLAND DR NW Fulton County, GA","5570%20LAKE%20ISLAND%20DR%20NW%20Fulton%20County,%20GA","https://www.google.com/maps/search/5570%20LAKE%20ISLAND%20DR%20NW%20Fulton%20County,%20GA",33.907319,-84.3956102
271,8153,495 TRABERT AVE NW,10/28/22,"$579,000.00 ",579000,327.8595696,1766,1940,"495 TRABERT AVE NW Fulton County, GA","495%20TRABERT%20AVE%20NW%20Fulton%20County,%20GA","https://www.google.com/maps/search/495%20TRABERT%20AVE%20NW%20Fulton%20County,%20GA",33.794868,-84.4040216
272,8154,1632 DEFOORS WALK NW,10/28/22,"$385,000.00 ",385000,224.4897959,1715,1982,"1632 DEFOORS WALK NW Fulton County, GA","1632%20DEFOORS%20WALK%20NW%20Fulton%20County,%20GA","https://www.google.com/maps/search/1632%20DEFOORS%20WALK%20NW%20Fulton%20County,%20GA",33.807562,-84.426014
273,8155,1972 PERRY BLVD,10/28/22,"$520,000.00 ",520000,283.8427948,1832,2017,"1972 PERRY BLVD Fulton County, GA","1972%20PERRY%20BLVD%20Fulton%20County,%20GA","https://www.google.com/maps/search/1972%20PERRY%20BLVD%20Fulton%20County,%20GA",33.797713,-84.4532002
274,8156,5636 HALSEY TRC,10/28/22,"$485,000.00 ",485000,140.3356481,3456,2005,"5636 HALSEY TRC Fulton County, GA","5636%20HALSEY%20TRC%20Fulton%20County,%20GA","https://www.google.com/maps/search/5636%20HALSEY%20TRC%20Fulton%20County,%20GA",33.6603544,-84.5721075
275,8157,2365 SOMEO CT,10/28/22,"$1,155,000.00 ",1155000,292.0353982,3955,2018,"2365 SOMEO CT Fulton County, GA","2365%20SOMEO%20CT%20Fulton%20County,%20GA","https://www.google.com/maps/search/2365%20SOMEO%20CT%20Fulton%20County,%20GA",33.8199713,-84.3486576
276,8158,795 HAMMOND DR # #408,10/28/22,"$217,500.00 ",217500,282.8348505,769,1990,"795 HAMMOND DR # #408 Fulton County, GA","795%20HAMMOND%20DR%20#%20#408%20Fulton%20County,%20GA","https://www.google.com/maps/search/795%20HAMMOND%20DR%20#%20#408%20Fulton%20County,%20GA",33.9174763,-84.3595063
277,8159,760 STARLIGHT LN NE,10/28/22,"$525,000.00 ",525000,279.8507463,1876,1955,"760 STARLIGHT LN NE Fulton County, GA","760%20STARLIGHT%20LN%20NE%20Fulton%20County,%20GA","https://www.google.com/maps/search/760%20STARLIGHT%20LN%20NE%20Fulton%20County,%20GA",33.8805132,-84.363301
278,8160,525 BROADVIEW PL,10/28/22,"$565,977.00 ",565977,335.2944313,1688,2021,"525 BROADVIEW PL Fulton County, GA","525%20BROADVIEW%20PL%20Fulton%20County,%20GA","https://www.google.com/maps/search/525%20BROADVIEW%20PL%20Fulton%20County,%20GA",33.820903,-84.364601
279,8161,2010 ARMINDA CT,10/28/22,"$805,000.00 ",805000,232.860862,3457,2002,"2010 ARMINDA CT Fulton County, GA","2010%20ARMINDA%20CT%20Fulton%20County,%20GA","https://www.google.com/maps/search/2010%20ARMINDA%20CT%20Fulton%20County,%20GA",34.0439086,-84.2768763
280,8162,265 BIRCH RILL DR,10/28/22,"$373,400.00 ",373400,329.8586572,1132,1983,"265 BIRCH RILL DR Fulton County, GA","265%20BIRCH%20RILL%20DR%20Fulton%20County,%20GA","https://www.google.com/maps/search/265%20BIRCH%20RILL%20DR%20Fulton%20County,%20GA",34.0316253,-84.2675908
281,8163,520 SABLE VIEW LN,10/28/22,"$250,000.00 ",250000,183.8235294,1360,2001,"520 SABLE VIEW LN Fulton County, GA","520%20SABLE%20VIEW%20LN%20Fulton%20County,%20GA","https://www.google.com/maps/search/520%20SABLE%20VIEW%20LN%20Fulton%20County,%20GA",33.6010095,-84.5001167
282,8164,821 RALPH MCGILL BLVD NE # 2320,10/28/22,"$250,000.00 ",250000,384.6153846,650,2001,"821 RALPH MCGILL BLVD NE # 2320 Fulton County, GA","821%20RALPH%20MCGILL%20BLVD%20NE%20#%202320%20Fulton%20County,%20GA","https://www.google.com/maps/search/821%20RALPH%20MCGILL%20BLVD%20NE%20#%202320%20Fulton%20County,%20GA",33.7675305,-84.3591993
283,8165,908 JUNIPER ST NE # 2,10/28/22,"$265,000.00 ",265000,416.6666667,636,1920,"908 JUNIPER ST NE # 2 Fulton County, GA","908%20JUNIPER%20ST%20NE%20#%202%20Fulton%20County,%20GA","https://www.google.com/maps/search/908%20JUNIPER%20ST%20NE%20#%202%20Fulton%20County,%20GA",33.7792622,-84.3829376
284,8166,760 MYRTLE ST NE,10/28/22,"$1,670,000.00 ",1670000,403.0895486,4143,1920,"760 MYRTLE ST NE Fulton County, GA","760%20MYRTLE%20ST%20NE%20Fulton%20County,%20GA","https://www.google.com/maps/search/760%20MYRTLE%20ST%20NE%20Fulton%20County,%20GA",33.775432,-84.3803247
285,8167,186 TONAWANDA DR SE,10/28/22,"$395,000.00 ",395000,226.7508611,1742,1963,"186 TONAWANDA DR SE Fulton County, GA","186%20TONAWANDA%20DR%20SE%20Fulton%20County,%20GA","https://www.google.com/maps/search/186%20TONAWANDA%20DR%20SE%20Fulton%20County,%20GA",33.6831281,-84.3854773
286,8168,1844 TIGER FLOWERS DR NW,10/28/22,"$249,000.00 ",249000,281.0383747,886,1949,"1844 TIGER FLOWERS DR NW Fulton County, GA","1844%20TIGER%20FLOWERS%20DR%20NW%20Fulton%20County,%20GA","https://www.google.com/maps/search/1844%20TIGER%20FLOWERS%20DR%20NW%20Fulton%20County,%20GA",33.7596145,-84.4473571
287,8169,2475 DODSON DR,10/28/22,"$431,000.00 ",431000,262.1654501,1644,1958,"2475 DODSON DR Fulton County, GA","2475%20DODSON%20DR%20Fulton%20County,%20GA","https://www.google.com/maps/search/2475%20DODSON%20DR%20Fulton%20County,%20GA",33.6879906,-84.476106
288,8170,1698 JACKSON SQUARE,10/28/22,"$311,000.00 ",311000,148.9463602,2088,2002,"1698 JACKSON SQUARE Fulton County, GA","1698%20JACKSON%20SQUARE%20Fulton%20County,%20GA","https://www.google.com/maps/search/1698%20JACKSON%20SQUARE%20Fulton%20County,%20GA",33.7962963,-84.4754676
289,8171,14175 RESERVE MANOR LN,10/28/22,"$1,319,881.00 ",1319881,327.7578843,4027,2021,"14175 RESERVE MANOR LN Fulton County, GA","14175%20RESERVE%20MANOR%20LN%20Fulton%20County,%20GA","https://www.google.com/maps/search/14175%20RESERVE%20MANOR%20LN%20Fulton%20County,%20GA",34.107945,-84.388651
290,8172,862 HALLBROOK LN,10/28/22,"$905,000.00 ",905000,292.3126615,3096,1998,"862 HALLBROOK LN Fulton County, GA","862%20HALLBROOK%20LN%20Fulton%20County,%20GA","https://www.google.com/maps/search/862%20HALLBROOK%20LN%20Fulton%20County,%20GA",34.1564459,-84.3176755
291,8173,425 TOWERGATE PL,10/28/22,"$284,000.00 ",284000,173.3821734,1638,1983,"425 TOWERGATE PL Fulton County, GA","425%20TOWERGATE%20PL%20Fulton%20County,%20GA","https://www.google.com/maps/search/425%20TOWERGATE%20PL%20Fulton%20County,%20GA",33.9887447,-84.3473083
292,8174,5627 UNION POINTE DR,10/28/22,"$160,000.00 ",160000,47.7326969,3352,2006,"5627 UNION POINTE DR Fulton County, GA","5627%20UNION%20POINTE%20DR%20Fulton%20County,%20GA","https://www.google.com/maps/search/5627%20UNION%20POINTE%20DR%20Fulton%20County,%20GA",33.587409,-84.5683528
293,8175,5687 LIBERTY RD,10/28/22,"$247,000.00 ",247000,197.9166667,1248,1986,"5687 LIBERTY RD Fulton County, GA","5687%20LIBERTY%20RD%20Fulton%20County,%20GA","https://www.google.com/maps/search/5687%20LIBERTY%20RD%20Fulton%20County,%20GA",34.186147,-84.3211544
294,8176,4144 RAVENWOOD CT,10/28/22,"$235,000.00 ",235000,168.579627,1394,2001,"4144 RAVENWOOD CT Fulton County, GA","4144%20RAVENWOOD%20CT%20Fulton%20County,%20GA","https://www.google.com/maps/search/4144%20RAVENWOOD%20CT%20Fulton%20County,%20GA",33.5999893,-84.5738715
295,8177,4865 STREAMSIDE DR,10/28/22,"$373,000.00 ",373000,283.8660578,1314,1989,"4865 STREAMSIDE DR Fulton County, GA","4865%20STREAMSIDE%20DR%20Fulton%20County,%20GA","https://www.google.com/maps/search/4865%20STREAMSIDE%20DR%20Fulton%20County,%20GA",34.0447871,-84.212873
296,8178,507 BUTLER NATIONAL DR,10/28/22,"$1,115,000.00 ",1115000,309.7222222,3600,1992,"507 BUTLER NATIONAL DR Fulton County, GA","507%20BUTLER%20NATIONAL%20DR%20Fulton%20County,%20GA","https://www.google.com/maps/search/507%20BUTLER%20NATIONAL%20DR%20Fulton%20County,%20GA",34.0306617,-84.1716039
297,8179,7180 DUNHILL TER NE,10/28/22,"$682,500.00 ",682500,248.4528577,2747,1966,"7180 DUNHILL TER NE Fulton County, GA","7180%20DUNHILL%20TER%20NE%20Fulton%20County,%20GA","https://www.google.com/maps/search/7180%20DUNHILL%20TER%20NE%20Fulton%20County,%20GA",33.9517179,-84.3812689
298,8180,3107 PEACHTREE RD UNIT 1905,10/28/22,"$2,400,000.00 ",2400000,967.3518742,2481,2019,"3107 PEACHTREE RD UNIT 1905 Fulton County, GA","3107%20PEACHTREE%20RD%20UNIT%201905%20Fulton%20County,%20GA","https://www.google.com/maps/search/3107%20PEACHTREE%20RD%20UNIT%201905%20Fulton%20County,%20GA",33.8399079,-84.3787588
299,8181,28 COLLIER RD NW # 11,10/28/22,"$290,000.00 ",290000,383.5978836,756,1925,"28 COLLIER RD NW # 11 Fulton County, GA","28%20COLLIER%20RD%20NW%20#%2011%20Fulton%20County,%20GA","https://www.google.com/maps/search/28%20COLLIER%20RD%20NW%20#%2011%20Fulton%20County,%20GA",33.8078375,-84.3968487
300,8182,1857 VOLBERG ST NW,10/28/22,"$1,250,000.00 ",1250000,580.3156917,2154,1998,"1857 VOLBERG ST NW Fulton County, GA","1857%20VOLBERG%20ST%20NW%20Fulton%20County,%20GA","https://www.google.com/maps/search/1857%20VOLBERG%20ST%20NW%20Fulton%20County,%20GA",33.8058332,-84.4215543
301,8183,3468 PACES PL NW,10/28/22,"$570,000.00 ",570000,209.0975789,2726,1962,"3468 PACES PL NW Fulton County, GA","3468%20PACES%20PL%20NW%20Fulton%20County,%20GA","https://www.google.com/maps/search/3468%20PACES%20PL%20NW%20Fulton%20County,%20GA",33.8513247,-84.4326317
302,8184,2962 GLENDALE CT,10/28/22,"$315,000.00 ",315000,110.1013632,2861,2007,"2962 GLENDALE CT Fulton County, GA","2962%20GLENDALE%20CT%20Fulton%20County,%20GA","https://www.google.com/maps/search/2962%20GLENDALE%20CT%20Fulton%20County,%20GA",33.6720972,-84.4817972
303,8185,58 SAINT CLAIRE LN NE,10/28/22,"$272,000.00 ",272000,187.5862069,1450,1983,"58 SAINT CLAIRE LN NE Fulton County, GA","58%20SAINT%20CLAIRE%20LN%20NE%20Fulton%20County,%20GA","https://www.google.com/maps/search/58%20SAINT%20CLAIRE%20LN%20NE%20Fulton%20County,%20GA",33.8307884,-84.3548903
2123,10005,1061 SHADOW GLEN DR,2/10/22,"$356,949.00 ",356949,118.1950331,3020,2021,"1061 SHADOW GLEN DR Fulton County, GA","1061%20SHADOW%20GLEN%20DR%20Fulton%20County,%20GA","https://www.google.com/maps/search/1061%20SHADOW%20GLEN%20DR%20Fulton%20County,%20GA",33.56538377,-84.61936916
305,8187,153 OLD FERRY RD,10/28/22,"$277,000.00 ",277000,223.3870968,1240,1982,"153 OLD FERRY RD Fulton County, GA","153%20OLD%20FERRY%20RD%20Fulton%20County,%20GA","https://www.google.com/maps/search/153%20OLD%20FERRY%20RD%20Fulton%20County,%20GA",34.0249522,-84.3241987
306,8188,130 SPRING RIDGE TRC,10/28/22,"$540,000.00 ",540000,187.5,2880,1983,"130 SPRING RIDGE TRC Fulton County, GA","130%20SPRING%20RIDGE%20TRC%20Fulton%20County,%20GA","https://www.google.com/maps/search/130%20SPRING%20RIDGE%20TRC%20Fulton%20County,%20GA",34.0200747,-84.2924752
307,8189,8435 EDWARDTON DR,10/28/22,"$625,000.00 ",625000,184.4746163,3388,1998,"8435 EDWARDTON DR Fulton County, GA","8435%20EDWARDTON%20DR%20Fulton%20County,%20GA","https://www.google.com/maps/search/8435%20EDWARDTON%20DR%20Fulton%20County,%20GA",33.9862593,-84.2787076
308,8190,4375 YATES RD,10/28/22,"$190,000.00 ",190000,183.3976834,1036,1948,"4375 YATES RD Fulton County, GA","4375%20YATES%20RD%20Fulton%20County,%20GA","https://www.google.com/maps/search/4375%20YATES%20RD%20Fulton%20County,%20GA",33.6365756,-84.4865112
309,8191,5630 OLD BILL COOK RD,10/28/22,"$140,000.00 ",140000,162.037037,864,1950,"5630 OLD BILL COOK RD Fulton County, GA","5630%20OLD%20BILL%20COOK%20RD%20Fulton%20County,%20GA","https://www.google.com/maps/search/5630%20OLD%20BILL%20COOK%20RD%20Fulton%20County,%20GA",33.6022336,-84.4854865
310,8192,6260 MOZART DR,10/28/22,"$220,000.00 ",220000,90.23789992,2438,1980,"6260 MOZART DR Fulton County, GA","6260%20MOZART%20DR%20Fulton%20County,%20GA","https://www.google.com/maps/search/6260%20MOZART%20DR%20Fulton%20County,%20GA",33.5845739,-84.4599467
311,8193,322 SEVENTH ST NE 2,10/28/22,"$175,000.00 ",175000,218.75,800,1960,"322 SEVENTH ST NE 2 Fulton County, GA","322%20SEVENTH%20ST%20NE%202%20Fulton%20County,%20GA","https://www.google.com/maps/search/322%20SEVENTH%20ST%20NE%202%20Fulton%20County,%20GA",33.7780995,-84.3767608
7692,15574,1067 JOHNSONS GRV,9/7/22,"$550,000.00 ",550000,211.5384615,2600,2017,"1067 JOHNSONS GRV Fulton County, GA","1067%20JOHNSONS%20GRV%20Fulton%20County,%20GA","https://www.google.com/maps/search/1067%20JOHNSONS%20GRV%20Fulton%20County,%20GA",33.78487935,-84.44770153
313,8195,292 TAFT ST SW,10/28/22,"$215,000.00 ",215000,271.4646465,792,1952,"292 TAFT ST SW Fulton County, GA","292%20TAFT%20ST%20SW%20Fulton%20County,%20GA","https://www.google.com/maps/search/292%20TAFT%20ST%20SW%20Fulton%20County,%20GA",33.7103785,-84.398532
314,8196,775 WELCH ST SW,10/28/22,"$313,000.00 ",313000,209.2245989,1496,2004,"775 WELCH ST SW Fulton County, GA","775%20WELCH%20ST%20SW%20Fulton%20County,%20GA","https://www.google.com/maps/search/775%20WELCH%20ST%20SW%20Fulton%20County,%20GA",33.7338806,-84.4048524
315,8197,2997 EIGHTH ST,10/28/22,"$303,000.00 ",303000,172.7480046,1754,2007,"2997 EIGHTH ST Fulton County, GA","2997%20EIGHTH%20ST%20Fulton%20County,%20GA","https://www.google.com/maps/search/2997%20EIGHTH%20ST%20Fulton%20County,%20GA",33.6736402,-84.4522374
316,8198,1869 TREMONT DR NW,10/28/22,"$310,000.00 ",310000,313.7651822,988,1955,"1869 TREMONT DR NW Fulton County, GA","1869%20TREMONT%20DR%20NW%20Fulton%20County,%20GA","https://www.google.com/maps/search/1869%20TREMONT%20DR%20NW%20Fulton%20County,%20GA",33.7628314,-84.448208
317,8199,73 ANDERSON AVE NW,10/28/22,"$240,000.00 ",240000,212.9547471,1127,1950,"73 ANDERSON AVE NW Fulton County, GA","73%20ANDERSON%20AVE%20NW%20Fulton%20County,%20GA","https://www.google.com/maps/search/73%20ANDERSON%20AVE%20NW%20Fulton%20County,%20GA",33.7556721,-84.4487105
318,8200,1094 BREAM DR,10/28/22,"$1,085,000.00 ",1085000,305.3757388,3553,2021,"1094 BREAM DR Fulton County, GA","1094%20BREAM%20DR%20Fulton%20County,%20GA","https://www.google.com/maps/search/1094%20BREAM%20DR%20Fulton%20County,%20GA",34.1699181,-84.3261422
319,8201,6595 ST MARK WAY,10/28/22,"$300,000.00 ",300000,169.3002257,1772,2015,"6595 ST MARK WAY Fulton County, GA","6595%20ST%20MARK%20WAY%20Fulton%20County,%20GA","https://www.google.com/maps/search/6595%20ST%20MARK%20WAY%20Fulton%20County,%20GA",33.5784613,-84.6256332
320,8202,116 MEADOW CT,10/28/22,"$257,000.00 ",257000,263.8603696,974,2005,"116 MEADOW CT Fulton County, GA","116%20MEADOW%20CT%20Fulton%20County,%20GA","https://www.google.com/maps/search/116%20MEADOW%20CT%20Fulton%20County,%20GA",34.0795399,-84.2996887
321,8203,5547 RADFORD LOOP,10/28/22,"$320,000.00 ",320000,160.6425703,1992,2019,"5547 RADFORD LOOP Fulton County, GA","5547%20RADFORD%20LOOP%20Fulton%20County,%20GA","https://www.google.com/maps/search/5547%20RADFORD%20LOOP%20Fulton%20County,%20GA",33.548832,-84.569538
322,8204,3338 PEACHTREE RD NE # 3208,10/27/22,"$317,000.00 ",317000,338.6752137,936,2004,"3338 PEACHTREE RD NE # 3208 Fulton County, GA","3338%20PEACHTREE%20RD%20NE%20#%203208%20Fulton%20County,%20GA","https://www.google.com/maps/search/3338%20PEACHTREE%20RD%20NE%20#%203208%20Fulton%20County,%20GA",33.8487893,-84.3710648
323,8205,4560 YATES RD,10/27/22,"$220,000.00 ",220000,149.4565217,1472,1963,"4560 YATES RD Fulton County, GA","4560%20YATES%20RD%20Fulton%20County,%20GA","https://www.google.com/maps/search/4560%20YATES%20RD%20Fulton%20County,%20GA",33.6314414,-84.4866751
324,8206,5615 WISBECH WAY,10/27/22,"$335,000.00 ",335000,168.8508065,1984,2015,"5615 WISBECH WAY Fulton County, GA","5615%20WISBECH%20WAY%20Fulton%20County,%20GA","https://www.google.com/maps/search/5615%20WISBECH%20WAY%20Fulton%20County,%20GA",33.6007268,-84.5217871
325,8207,5455 GLENRIDGE VIEW,10/27/22,"$660,000.00 ",660000,189.3830703,3485,2004,"5455 GLENRIDGE VIEW Fulton County, GA","5455%20GLENRIDGE%20VIEW%20Fulton%20County,%20GA","https://www.google.com/maps/search/5455%20GLENRIDGE%20VIEW%20Fulton%20County,%20GA",33.903521,-84.349599
326,8208,750 DALRYMPLE RD # 2 I,10/27/22,"$265,000.00 ",265000,146.2472406,1812,1967,"750 DALRYMPLE RD # 2 I Fulton County, GA","750%20DALRYMPLE%20RD%20#%202%20I%20Fulton%20County,%20GA","https://www.google.com/maps/search/750%20DALRYMPLE%20RD%20#%202%20I%20Fulton%20County,%20GA",33.956156,-84.361561
327,8209,905 JUNIPER ST NE # 506,10/27/22,"$335,000.00 ",335000,458.9041096,730,2006,"905 JUNIPER ST NE # 506 Fulton County, GA","905%20JUNIPER%20ST%20NE%20#%20506%20Fulton%20County,%20GA","https://www.google.com/maps/search/905%20JUNIPER%20ST%20NE%20#%20506%20Fulton%20County,%20GA",33.7793902,-84.3824689
328,8210,1188 SIMS ST SW,10/27/22,"$315,000.00 ",315000,181.8706697,1732,1930,"1188 SIMS ST SW Fulton County, GA","1188%20SIMS%20ST%20SW%20Fulton%20County,%20GA","https://www.google.com/maps/search/1188%20SIMS%20ST%20SW%20Fulton%20County,%20GA",33.7224687,-84.4030194
329,8211,2430 BAXTER RD SW,10/27/22,"$265,000.00 ",265000,250.7095553,1057,1954,"2430 BAXTER RD SW Fulton County, GA","2430%20BAXTER%20RD%20SW%20Fulton%20County,%20GA","https://www.google.com/maps/search/2430%20BAXTER%20RD%20SW%20Fulton%20County,%20GA",33.6880026,-84.412919
330,8212,745 CATHERINE ST SW,10/27/22,"$425,000.00 ",425000,358.9527027,1184,1922,"745 CATHERINE ST SW Fulton County, GA","745%20CATHERINE%20ST%20SW%20Fulton%20County,%20GA","https://www.google.com/maps/search/745%20CATHERINE%20ST%20SW%20Fulton%20County,%20GA",33.7261939,-84.4121371
331,8213,1850 WEST FORREST AVE,10/27/22,"$358,000.00 ",358000,342.5837321,1045,1938,"1850 WEST FORREST AVE Fulton County, GA","1850%20WEST%20FORREST%20AVE%20Fulton%20County,%20GA","https://www.google.com/maps/search/1850%20WEST%20FORREST%20AVE%20Fulton%20County,%20GA",33.6860573,-84.4490754
332,8214,860 WESTMORELAND CIR,10/27/22,"$432,200.00 ",432200,263.5365854,1640,2017,"860 WESTMORELAND CIR Fulton County, GA","860%20WESTMORELAND%20CIR%20Fulton%20County,%20GA","https://www.google.com/maps/search/860%20WESTMORELAND%20CIR%20Fulton%20County,%20GA",33.7884155,-84.449841
333,8215,1949 BRANTLEY WALK LN,10/27/22,"$540,000.00 ",540000,211.2676056,2556,2006,"1949 BRANTLEY WALK LN Fulton County, GA","1949%20BRANTLEY%20WALK%20LN%20Fulton%20County,%20GA","https://www.google.com/maps/search/1949%20BRANTLEY%20WALK%20LN%20Fulton%20County,%20GA",33.8092185,-84.4665324
334,8216,706 SWEET APPLE CIR,10/27/22,"$389,500.00 ",389500,251.2903226,1550,2004,"706 SWEET APPLE CIR Fulton County, GA","706%20SWEET%20APPLE%20CIR%20Fulton%20County,%20GA","https://www.google.com/maps/search/706%20SWEET%20APPLE%20CIR%20Fulton%20County,%20GA",34.0806828,-84.359314
335,8217,1037 BALDWIN DR,10/27/22,"$1,147,856.00 ",1147856,423.2507375,2712,2021,"1037 BALDWIN DR Fulton County, GA","1037%20BALDWIN%20DR%20Fulton%20County,%20GA","https://www.google.com/maps/search/1037%20BALDWIN%20DR%20Fulton%20County,%20GA",34.093787,-84.335717
336,8218,400 THE HERMITAGE DR,10/27/22,"$765,000.00 ",765000,209.7614478,3647,1998,"400 THE HERMITAGE DR Fulton County, GA","400%20THE%20HERMITAGE%20DR%20Fulton%20County,%20GA","https://www.google.com/maps/search/400%20THE%20HERMITAGE%20DR%20Fulton%20County,%20GA",34.1103186,-84.2774014
337,8219,515 HARRIS AVE,10/27/22,"$131,000.00 ",131000,83.92056374,1561,1920,"515 HARRIS AVE Fulton County, GA","515%20HARRIS%20AVE%20Fulton%20County,%20GA","https://www.google.com/maps/search/515%20HARRIS%20AVE%20Fulton%20County,%20GA",33.5242035,-84.6686509
338,8220,5155 UPPER ELM ST,10/27/22,"$300,000.00 ",300000,130.2083333,2304,2006,"5155 UPPER ELM ST Fulton County, GA","5155%20UPPER%20ELM%20ST%20Fulton%20County,%20GA","https://www.google.com/maps/search/5155%20UPPER%20ELM%20ST%20Fulton%20County,%20GA",33.6165359,-84.5854475
339,8221,340 FALLS POINT TRL,10/27/22,"$930,000.00 ",930000,192.5864568,4829,1997,"340 FALLS POINT TRL Fulton County, GA","340%20FALLS%20POINT%20TRL%20Fulton%20County,%20GA","https://www.google.com/maps/search/340%20FALLS%20POINT%20TRL%20Fulton%20County,%20GA",34.0232267,-84.2358857
340,8222,1045 BROOKSTEAD CHASE,10/27/22,"$739,226.00 ",739226,214.8912791,3440,1992,"1045 BROOKSTEAD CHASE Fulton County, GA","1045%20BROOKSTEAD%20CHASE%20Fulton%20County,%20GA","https://www.google.com/maps/search/1045%20BROOKSTEAD%20CHASE%20Fulton%20County,%20GA",34.0542641,-84.1402067
341,8223,5010 TOWNESHIP CREEK RD,10/27/22,"$600,000.00 ",600000,284.9002849,2106,2018,"5010 TOWNESHIP CREEK RD Fulton County, GA","5010%20TOWNESHIP%20CREEK%20RD%20Fulton%20County,%20GA","https://www.google.com/maps/search/5010%20TOWNESHIP%20CREEK%20RD%20Fulton%20County,%20GA",34.0536521,-84.3664451
342,8224,110 ROUNSAVILLE CT,10/27/22,"$530,000.00 ",530000,268.7626775,1972,1992,"110 ROUNSAVILLE CT Fulton County, GA","110%20ROUNSAVILLE%20CT%20Fulton%20County,%20GA","https://www.google.com/maps/search/110%20ROUNSAVILLE%20CT%20Fulton%20County,%20GA",34.0668546,-84.3605259
343,8225,1028 SASHA LN,10/27/22,"$353,000.00 ",353000,221.8730358,1591,1987,"1028 SASHA LN Fulton County, GA","1028%20SASHA%20LN%20Fulton%20County,%20GA","https://www.google.com/maps/search/1028%20SASHA%20LN%20Fulton%20County,%20GA",34.0344002,-84.3576504
344,8226,3820 ROSWELL RD # 1007,10/27/22,"$365,000.00 ",365000,300.4115226,1215,2005,"3820 ROSWELL RD # 1007 Fulton County, GA","3820%20ROSWELL%20RD%20#%201007%20Fulton%20County,%20GA","https://www.google.com/maps/search/3820%20ROSWELL%20RD%20#%201007%20Fulton%20County,%20GA",33.9775407,-84.4404067
345,8227,640 AMBERIDGE TRL NW,10/27/22,"$505,000.00 ",505000,315.822389,1599,1960,"640 AMBERIDGE TRL NW Fulton County, GA","640%20AMBERIDGE%20TRL%20NW%20Fulton%20County,%20GA","https://www.google.com/maps/search/640%20AMBERIDGE%20TRL%20NW%20Fulton%20County,%20GA",33.9331894,-84.4035186
346,8228,1272 LIBERTY PKWY NW # 1107,10/27/22,"$349,900.00 ",349900,263.8763198,1326,2005,"1272 LIBERTY PKWY NW # 1107 Fulton County, GA","1272%20LIBERTY%20PKWY%20NW%20#%201107%20Fulton%20County,%20GA","https://www.google.com/maps/search/1272%20LIBERTY%20PKWY%20NW%20#%201107%20Fulton%20County,%20GA",33.81845,-84.4417069
347,8229,29 PLANTATION DR NE,10/27/22,"$370,000.00 ",370000,223.0259192,1659,1985,"29 PLANTATION DR NE Fulton County, GA","29%20PLANTATION%20DR%20NE%20Fulton%20County,%20GA","https://www.google.com/maps/search/29%20PLANTATION%20DR%20NE%20Fulton%20County,%20GA",33.8374996,-84.355047
348,8230,7750 ROSWELL RD 10-F,10/27/22,"$255,000.00 ",255000,188.8888889,1350,1980,"7750 ROSWELL RD 10-F Fulton County, GA","7750%20ROSWELL%20RD%2010-F%20Fulton%20County,%20GA","https://www.google.com/maps/search/7750%20ROSWELL%20RD%2010-F%20Fulton%20County,%20GA",33.9667462,-84.364277
349,8231,7340 GLISTEN AVE UNIT 89,10/27/22,"$452,500.00 ",452500,299.2724868,1512,2012,"7340 GLISTEN AVE UNIT 89 Fulton County, GA","7340%20GLISTEN%20AVE%20UNIT%2089%20Fulton%20County,%20GA","https://www.google.com/maps/search/7340%20GLISTEN%20AVE%20UNIT%2089%20Fulton%20County,%20GA",33.9530455,-84.3651883
350,8232,10177 WINDALIER WAY,10/27/22,"$725,000.00 ",725000,321.3652482,2256,2017,"10177 WINDALIER WAY Fulton County, GA","10177%20WINDALIER%20WAY%20Fulton%20County,%20GA","https://www.google.com/maps/search/10177%20WINDALIER%20WAY%20Fulton%20County,%20GA",34.0513995,-84.3175728
